{
  "groups": [
    {
      "id": 1,
      "label": "Группа №1. ТОП-20 лучших школ Москвы по итогам 2024/2025 учебного года",
      "color": "#1a9641"
    },
    {
      "id": 2,
      "label": "Группа №2. Лучшие школы Москвы (21–70 место)",
      "color": "#a6d96a"
    },
    {
      "id": 3,
      "label": "Группа №3. Лучшие школы Москвы (71–170 место)",
      "color": "#fdae61"
    },
    {
      "id": 4,
      "label": "Группа №4. Лучшие школ Москвы (171–220 место)",
      "color": "#f17c4a"
    },
    {
      "id": 5,
      "label": "Группа №5. Лучшие школы Москвы (221–300 место)",
      "color": "#d7191c"
    },
    {
      "id": 6,
      "label": "Группа №6. Лучшие школы Москвы (301–400 место)",
      "color": "#2b83ba"
    }
  ],
  "schools": [
    {
      "name": "Школа №1502 «Энергия»",
      "number": "1502",
      "district": "Ивановское",
      "okrug": "ВАО",
      "groupId": 1,
      "buildings": [
        {
          "name": "Лицей № 1502 при МЭИ",
          "address": "Лицей № 1502 при МЭИ, улица Молостовых, район Ивановское, Москва, Центральный федеральный округ, 111578, Россия",
          "lat": 55.7603816,
          "lon": 37.8302636
        }
      ]
    },
    {
      "name": "Школа №444",
      "number": "444",
      "district": "Измайлово",
      "okrug": "ВАО",
      "groupId": 1,
      "buildings": [
        {
          "name": "Школа № 444. Корпус школьного образования",
          "address": "Школа № 444. Корпус школьного образования, площадь Журавлёва, район Преображенское, Москва, Центральный федеральный округ, 107023, Россия",
          "lat": 55.783874,
          "lon": 37.7060439
        },
        {
          "name": "Школа № 444. Начальная школа",
          "address": "Школа № 444. Начальная школа, Нижняя Первомайская улица, район Измайлово, Москва, Центральный федеральный округ, 105043, Россия",
          "lat": 55.7901242,
          "lon": 37.7926174
        },
        {
          "name": "Школа № 444",
          "address": "Школа № 444, Нижняя Первомайская улица, район Измайлово, Москва, Центральный федеральный округ, 105950, Россия",
          "lat": 55.7905403,
          "lon": 37.7966114
        }
      ]
    },
    {
      "name": "Школа №2036",
      "number": "2036",
      "district": "Косино-Ухтомский",
      "okrug": "ВАО",
      "groupId": 1,
      "buildings": [
        {
          "name": "Школа № 2036",
          "address": "Школа № 2036, Школьная улица, посёлок Ухтомского, район Косино-Ухтомский, Москва, Центральный федеральный округ, 109544, Россия",
          "lat": 55.7035877,
          "lon": 37.8644117
        }
      ]
    },
    {
      "name": "Школа №1543",
      "number": "1543",
      "district": "Тропарево-Никулино",
      "okrug": "ЗАО",
      "groupId": 1,
      "buildings": [
        {
          "name": "Гимназия №1543",
          "address": "Гимназия №1543, Бродвей, Тропарёво-Никулино, Москва, Центральный федеральный округ, 119571, Россия",
          "lat": 55.6556222,
          "lon": 37.4862628
        }
      ]
    },
    {
      "name": "Школа №2070 им. Г.А. Вартаняна",
      "number": "2070",
      "district": "поселение Сосенское",
      "okrug": "НАО",
      "groupId": 1,
      "buildings": [
        {
          "name": "Школа 2070",
          "address": "Школа 2070, Фитарёвская улица, район Коммунарка, Москва, Центральный федеральный округ, 142770, Россия",
          "lat": 55.5720891,
          "lon": 37.4805657
        }
      ]
    },
    {
      "name": "Школа «Летово»",
      "number": null,
      "district": "поселение Сосенское",
      "okrug": "НАО",
      "groupId": 1,
      "buildings": [
        {
          "name": "Школа «Летово»",
          "address": "Школа «Летово», 3, Зимёнковская улица, район Коммунарка, Москва, Центральный федеральный округ, 108814, Россия",
          "lat": 55.5574146,
          "lon": 37.4222813
        },
        {
          "name": "Школа Летово",
          "address": "Школа Летово, улица Летовского Ополчения (дублёр), район Коммунарка, Москва, Центральный федеральный округ, 108802, Россия",
          "lat": 55.560639,
          "lon": 37.4202908
        }
      ]
    },
    {
      "name": "Школа №1568 им. Пабло Неруды",
      "number": "1568",
      "district": "Южное Медведково",
      "okrug": "СВАО",
      "groupId": 1,
      "buildings": [
        {
          "name": "Лицей № 1568 имени Пабло Неруды",
          "address": "Лицей № 1568 имени Пабло Неруды, проезд Пахтусова, район Южное Медведково, Москва, Центральный федеральный округ, 127642, Россия",
          "lat": 55.8745158,
          "lon": 37.6421714
        }
      ]
    },
    {
      "name": "Курчатовская школа",
      "number": null,
      "district": "Щукино",
      "okrug": "СЗАО",
      "groupId": 1,
      "buildings": [
        {
          "name": "Курчатовская школа \"Школа-интернат №101 (для слабослышащих)\"",
          "address": "Курчатовская школа \"Школа-интернат №101 (для слабослышащих)\", набережная Новикова-Прибоя, район Хорошёво-Мнёвники, Москва, Центральный федеральный округ, 123103, Россия",
          "lat": 55.7878947,
          "lon": 37.4502516
        },
        {
          "name": "Курчатовская школа корпус \"Маршал\"",
          "address": "Курчатовская школа корпус \"Маршал\", улица Маршала Бирюзова, район Щукино, Москва, Центральный федеральный округ, 123298, Россия",
          "lat": 55.7917844,
          "lon": 37.4985745
        },
        {
          "name": "Курчатовская школа \"ФОК\"",
          "address": "Курчатовская школа \"ФОК\", улица Маршала Василевского, район Щукино, Москва, Центральный федеральный округ, 123098, Россия",
          "lat": 55.8050175,
          "lon": 37.4699668
        },
        {
          "name": "Курчатовская школа корпус \"Вектор\"",
          "address": "Курчатовская школа корпус \"Вектор\", улица Маршала Мерецкова, район Щукино, Москва, Центральный федеральный округ, 123060, Россия",
          "lat": 55.7950085,
          "lon": 37.4864277
        },
        {
          "name": "Курчатовская школа корпус \"Факультет\"",
          "address": "Курчатовская школа корпус \"Факультет\", улица Маршала Конева, район Щукино, Москва, Центральный федеральный округ, 123060, Россия",
          "lat": 55.7973425,
          "lon": 37.48842
        },
        {
          "name": "Курчатовская школа корпус \"Интеграция\"",
          "address": "Курчатовская школа корпус \"Интеграция\", улица Расплетина, Октябрьское Поле, район Щукино, Москва, Центральный федеральный округ, 123060, Россия",
          "lat": 55.790011,
          "lon": 37.4778383
        },
        {
          "name": "Курчатовская школа корпус \"5-й элемент\"",
          "address": "Курчатовская школа корпус \"5-й элемент\", 1-й Пехотный переулок, район Щукино, Москва, Центральный федеральный округ, 123182, Россия",
          "lat": 55.805595,
          "lon": 37.4822899
        }
      ]
    },
    {
      "name": "Лицей НИУ ВШЭ",
      "number": null,
      "district": "Басманный",
      "okrug": "ЦАО",
      "groupId": 1,
      "buildings": [
        {
          "name": "Лицей НИУ ВШЭ",
          "address": "Лицей НИУ ВШЭ, 4, Большой Харитоньевский переулок, Басманный район, Москва, Центральный федеральный округ, 105175, Россия",
          "lat": 55.7636417,
          "lon": 37.6439232
        },
        {
          "name": "Лицей НИУ ВШЭ",
          "address": "Лицей НИУ ВШЭ, Лялин переулок, Ивановская горка, Басманный район, Москва, Центральный федеральный округ, 105062, Россия",
          "lat": 55.7608004,
          "lon": 37.6519778
        },
        {
          "name": "Лицей НИУ ВШЭ",
          "address": "Лицей НИУ ВШЭ, 1-й Колобовский переулок, 50, Тверской район, Москва, Центральный федеральный округ, 127051, Россия",
          "lat": 55.7697384,
          "lon": 37.6187845
        },
        {
          "name": "Лицей НИУ ВШЭ",
          "address": "Лицей НИУ ВШЭ, Таганский район, Москва, Центральный федеральный округ, 109074, Россия",
          "lat": 55.7523702,
          "lon": 37.6374355
        }
      ]
    },
    {
      "name": "Школа №1501",
      "number": "1501",
      "district": "Тверской",
      "okrug": "ЦАО",
      "groupId": 1,
      "buildings": [
        {
          "name": "Школа № 1501. Инженерные и ИТ-классы",
          "address": "Школа № 1501. Инженерные и ИТ-классы, Тихвинский переулок, Тверской район, Москва, Центральный федеральный округ, 127055, Россия",
          "lat": 55.7877467,
          "lon": 37.5957391
        },
        {
          "name": "Школа № 1501. Многопрофильные классы на Тихвинской",
          "address": "Школа № 1501. Многопрофильные классы на Тихвинской, улица Сущёвский Вал, Тверской район, Москва, Центральный федеральный округ, 103555, Россия",
          "lat": 55.7916855,
          "lon": 37.5983058
        },
        {
          "name": "Школа № 1501. Лингвистические классы",
          "address": "Школа № 1501. Лингвистические классы, 32, Сущёвская улица, Тверской район, Москва, Центральный федеральный округ, 127055, Россия",
          "lat": 55.7838309,
          "lon": 37.6019802
        },
        {
          "name": "Школьное отделение № 22 Лицея № 1501",
          "address": "Школьное отделение № 22 Лицея № 1501, улица Малая Дмитровка, Тверской район, Москва, Центральный федеральный округ, 127238, Россия",
          "lat": 55.770012,
          "lon": 37.6071196
        }
      ]
    },
    {
      "name": "Школа №179",
      "number": "179",
      "district": "Тверской",
      "okrug": "ЦАО",
      "groupId": 1,
      "buildings": [
        {
          "name": "Школа № 179",
          "address": "Школа № 179, Георгиевский переулок, 18, 62, Тверской район, Москва, Центральный федеральный округ, 435678, Россия",
          "lat": 55.7596609,
          "lon": 37.6148148
        }
      ]
    },
    {
      "name": "Пятьдесят седьмая школа",
      "number": null,
      "district": "Хамовники",
      "okrug": "ЦАО",
      "groupId": 1,
      "buildings": []
    },
    {
      "name": "Школа №1535",
      "number": "1535",
      "district": "Хамовники",
      "okrug": "ЦАО",
      "groupId": 1,
      "buildings": [
        {
          "name": "Лицей № 1535",
          "address": "Лицей № 1535, Усачёва улица, квартал 533, район Хамовники, Москва, Центральный федеральный округ, 119048, Россия",
          "lat": 55.7260488,
          "lon": 37.5651011
        },
        {
          "name": "Лицей № 1535",
          "address": "Лицей № 1535, Малый Саввинский переулок, 531, район Хамовники, Москва, Центральный федеральный округ, 119435, Россия",
          "lat": 55.7311052,
          "lon": 37.562031
        }
      ]
    },
    {
      "name": "Школа ЦПМ",
      "number": null,
      "district": "Мещанский",
      "okrug": "ЦАО",
      "groupId": 1,
      "buildings": [
        {
          "name": "Школа ЦПМ",
          "address": "Школа ЦПМ, 16 с1, улица Воронцово Поле, Таганский район, Москва, Центральный федеральный округ, 105064, Россия",
          "lat": 55.7537706,
          "lon": 37.6535854
        }
      ]
    },
    {
      "name": "Школа №1363",
      "number": "1363",
      "district": "Выхино-Жулебино",
      "okrug": "ЮВАО",
      "groupId": 1,
      "buildings": [
        {
          "name": "ГБОУ школа № 1363",
          "address": "ГБОУ школа № 1363, корпус 2, 7 к3, Ташкентский переулок, Выхино, район Выхино-Жулебино, Москва, Центральный федеральный округ, 109444, Россия",
          "lat": 55.7066167,
          "lon": 37.8235454
        },
        {
          "name": "ГБОУ школа № 1363",
          "address": "ГБОУ школа № 1363, корпус № 1, 82 к4, Рязанский проспект (дублёр), Выхино, район Выхино-Жулебино, Москва, Центральный федеральный округ, 109542, Россия",
          "lat": 55.7077736,
          "lon": 37.8241936
        }
      ]
    },
    {
      "name": "Школа на Юго-Востоке им. В.И. Чуйкова",
      "number": null,
      "district": "Кузьминки",
      "okrug": "ЮВАО",
      "groupId": 1,
      "buildings": []
    },
    {
      "name": "Лицей «Вторая школа» им. В.Ф. Овчинникова",
      "number": null,
      "district": "Гагаринский",
      "okrug": "ЮЗАО",
      "groupId": 1,
      "buildings": []
    },
    {
      "name": "Школа №2007 ФМШ",
      "number": "2007",
      "district": "Южное Бутово",
      "okrug": "ЮЗАО",
      "groupId": 1,
      "buildings": [
        {
          "name": "Школа № 2007",
          "address": "Школа № 2007, улица Горчакова, Гавриково, район Южное Бутово, Москва, Центральный федеральный округ, 117041, Россия",
          "lat": 55.5445552,
          "lon": 37.5329992
        }
      ]
    },
    {
      "name": "Бауманская инженерная школа №1580",
      "number": "1580",
      "district": "Нагорный",
      "okrug": "ЮАО",
      "groupId": 1,
      "buildings": [
        {
          "name": "Бауманская инженерная школа № 1580",
          "address": "Бауманская инженерная школа № 1580, проезд Невельского, Квартал Смелость, Жилой комплекс «Символ», район Лефортово, Москва, Центральный федеральный округ, 111250, Россия",
          "lat": 55.7503113,
          "lon": 37.7018309
        },
        {
          "name": "Бауманская инженерная школа № 1580. Корпус 3",
          "address": "Бауманская инженерная школа № 1580. Корпус 3, 2-й Донской проезд, Донской район, Москва, Центральный федеральный округ, 119071, Россия",
          "lat": 55.7137196,
          "lon": 37.5953956
        }
      ]
    },
    {
      "name": "Школа №548 «Царицыно»",
      "number": "548",
      "district": "Орехово-Борисово Южное",
      "okrug": "ЮАО",
      "groupId": 1,
      "buildings": [
        {
          "name": "Школа № 548 «Царицыно». Корпус школьного образования «ЗилАрт»",
          "address": "Школа № 548 «Царицыно». Корпус школьного образования «ЗилАрт», проспект Лихачёва, Жилой комплекс «ЗИЛАРТ», Даниловский район, Москва, Центральный федеральный округ, 115191, Россия",
          "lat": 55.7012025,
          "lon": 37.6387849
        },
        {
          "name": "Центр образования № 548",
          "address": "Центр образования № 548, улица Маршала Захарова, район Орехово-Борисово Северное, Москва, Центральный федеральный округ, 115569, Россия",
          "lat": 55.6236883,
          "lon": 37.7018965
        },
        {
          "name": "Центр образования № 548",
          "address": "Центр образования № 548, Елецкая улица, Орехово-Борисово Южное, Москва, Центральный федеральный округ, 115583, Россия",
          "lat": 55.6028254,
          "lon": 37.737805
        }
      ]
    },
    {
      "name": "Школа №1504",
      "number": "1504",
      "district": "Ивановское",
      "okrug": "ВАО",
      "groupId": 2,
      "buildings": [
        {
          "name": "Школа №1504",
          "address": "Школа №1504, улица Сталеваров, район Ивановское, Москва, Центральный федеральный округ, 111555, Россия",
          "lat": 55.7633261,
          "lon": 37.8378147
        },
        {
          "name": "Школа №1504 (школьный корпус №3)",
          "address": "Школа №1504 (школьный корпус №3), 20А, улица Сталеваров, район Ивановское, Москва, Центральный федеральный округ, 111555, Россия",
          "lat": 55.7553875,
          "lon": 37.8376287
        },
        {
          "name": "Школа №1504 (школьный корпус №2)",
          "address": "Школа №1504 (школьный корпус №2), улица Сталеваров, район Ивановское, Москва, Центральный федеральный округ, 111555, Россия",
          "lat": 55.7570148,
          "lon": 37.8376509
        }
      ]
    },
    {
      "name": "Школа №2127",
      "number": "2127",
      "district": "Новокосино",
      "okrug": "ВАО",
      "groupId": 2,
      "buildings": []
    },
    {
      "name": "Школа №67",
      "number": "67",
      "district": "Дорогомилово",
      "okrug": "ЗАО",
      "groupId": 2,
      "buildings": [
        {
          "name": "Школа № 67. Отделение общего образования",
          "address": "Школа № 67. Отделение общего образования, 16, Поклонная улица, район Дорогомилово, Москва, Центральный федеральный округ, 121170, Россия",
          "lat": 55.7344209,
          "lon": 37.5213764
        },
        {
          "name": "Школа № 67. Подразделение № 2",
          "address": "Школа № 67. Подразделение № 2, 10 к2, Поклонная улица, район Дорогомилово, Москва, Центральный федеральный округ, 121170, Россия",
          "lat": 55.7368519,
          "lon": 37.5282504
        },
        {
          "name": "ГБОУ \"Школа № 67\"",
          "address": "ГБОУ \"Школа № 67\", отделение общего образования, 5, улица Дениса Давыдова, район Дорогомилово, Москва, Центральный федеральный округ, 121170, Россия",
          "lat": 55.7385897,
          "lon": 37.5183499
        },
        {
          "name": "Школа № 67",
          "address": "Школа № 67, Кутузовский проезд, район Дорогомилово, Москва, Центральный федеральный округ, 121170, Россия",
          "lat": 55.741519,
          "lon": 37.5231502
        },
        {
          "name": "Language School 67",
          "address": "Language School 67, улица Дениса Давыдова, район Дорогомилово, Москва, Центральный федеральный округ, 121170, Россия",
          "lat": 55.7388837,
          "lon": 37.5191045
        }
      ]
    },
    {
      "name": "Школа «Технологии обучения»",
      "number": null,
      "district": "Дорогомилово",
      "okrug": "ЗАО",
      "groupId": 2,
      "buildings": [
        {
          "name": "Школа «Технологии обучения». Учебный корпус № 1",
          "address": "Школа «Технологии обучения». Учебный корпус № 1, 6-й Можайский переулок, район Дорогомилово, Москва, Центральный федеральный округ, 121151, Россия",
          "lat": 55.7411435,
          "lon": 37.5502542
        },
        {
          "name": "i-Школа",
          "address": "i-Школа, Красноармейская улица, район Аэропорт, Москва, Центральный федеральный округ, 125319, Россия",
          "lat": 55.7999878,
          "lon": 37.5419129
        }
      ]
    },
    {
      "name": "Шуваловская школа №1448",
      "number": "1448",
      "district": "Раменки",
      "okrug": "ЗАО",
      "groupId": 2,
      "buildings": [
        {
          "name": "Шуваловская школа № 1448. Основной корпус «Шуваловский»",
          "address": "Шуваловская школа № 1448. Основной корпус «Шуваловский», улица Светланова, район Раменки, Москва, Центральный федеральный округ, 119992, Россия",
          "lat": 55.7025372,
          "lon": 37.5126012
        },
        {
          "name": "Шуваловская школа № 1448. Корпус «Мосфильмовский»",
          "address": "Шуваловская школа № 1448. Корпус «Мосфильмовский», улица Улофа Пальме, район Раменки, Москва, Центральный федеральный округ, 119590, Россия",
          "lat": 55.7208236,
          "lon": 37.5116901
        }
      ]
    },
    {
      "name": "Школа им. А.Н. Колмогорова",
      "number": null,
      "district": "Раменки",
      "okrug": "ЗАО",
      "groupId": 2,
      "buildings": []
    },
    {
      "name": "Школа-интернат МГУ",
      "number": null,
      "district": "Раменки",
      "okrug": "ЗАО",
      "groupId": 2,
      "buildings": [
        {
          "name": "Школа-интернат МГУ",
          "address": "Школа-интернат МГУ, проектируемый проезд № 6453, район Раменки, Москва, Центральный федеральный округ, 119311, Россия",
          "lat": 55.6945752,
          "lon": 37.5247578
        }
      ]
    },
    {
      "name": "Школа №1542",
      "number": "1542",
      "district": "Солнцево",
      "okrug": "ЗАО",
      "groupId": 2,
      "buildings": [
        {
          "name": "Школа 1542 корпус 4",
          "address": "Школа 1542 корпус 4, 3, улица Авиаторов, район Солнцево, Москва, Центральный федеральный округ, 119619, Россия",
          "lat": 55.6416882,
          "lon": 37.398116
        },
        {
          "name": "Школа № 1542. Корпус школьного образования №3",
          "address": "Школа № 1542. Корпус школьного образования №3, улица Авиаторов, район Солнцево, Москва, Центральный федеральный округ, 119619, Россия",
          "lat": 55.6491023,
          "lon": 37.383335
        },
        {
          "name": "Гимназия № 1542",
          "address": "Гимназия № 1542, 5-я Прудная улица, район Солнцево, Москва, Центральный федеральный округ, 119629, Россия",
          "lat": 55.6468232,
          "lon": 37.3993458
        }
      ]
    },
    {
      "name": "Школа на проспекте Вернадского",
      "number": null,
      "district": "Тропарево-Никулино",
      "okrug": "ЗАО",
      "groupId": 2,
      "buildings": [
        {
          "name": "Школа на проспекте Вернадского. Корпус школьного образования 1",
          "address": "Школа на проспекте Вернадского. Корпус школьного образования 1, Ленинский проспект, Тропарёво-Никулино, Москва, Центральный федеральный округ, 119571, Россия",
          "lat": 55.6534381,
          "lon": 37.4835681
        },
        {
          "name": "Школа на проспекте Вернадского. Корпус школьного образования 3",
          "address": "Школа на проспекте Вернадского. Корпус школьного образования 3, Ленинский проспект, Тропарёво-Никулино, Москва, Центральный федеральный округ, 119571, Россия",
          "lat": 55.6536658,
          "lon": 37.485545
        },
        {
          "name": "Школа на проспекте Вернадского. Корпус школьного образования 2",
          "address": "Школа на проспекте Вернадского. Корпус школьного образования 2, Ленинский проспект, Тропарёво-Никулино, Москва, Центральный федеральный округ, 119571, Россия",
          "lat": 55.6526556,
          "lon": 37.4850795
        }
      ]
    },
    {
      "name": "Школа №1317",
      "number": "1317",
      "district": "Тропарево-Никулино",
      "okrug": "ЗАО",
      "groupId": 2,
      "buildings": [
        {
          "name": "Школа № 1317. Начальное отделение",
          "address": "Школа № 1317. Начальное отделение, Никулинский проезд, Олимпийская деревня, Тропарёво-Никулино, Москва, Центральный федеральный округ, 119602, Россия",
          "lat": 55.6713666,
          "lon": 37.4705881
        }
      ]
    },
    {
      "name": "Школа №1329",
      "number": "1329",
      "district": "Тропарево-Никулино",
      "okrug": "ЗАО",
      "groupId": 2,
      "buildings": [
        {
          "name": "Школа № 1329",
          "address": "Школа № 1329, проезд Олимпийской Деревни, Олимпийская деревня, Тропарёво-Никулино, Москва, Центральный федеральный округ, 119602, Россия",
          "lat": 55.6689717,
          "lon": 37.4650534
        },
        {
          "name": "Школа № 1329. Учебный корпус № 2",
          "address": "Школа № 1329. Учебный корпус № 2, проезд Олимпийской Деревни, Олимпийская деревня, Тропарёво-Никулино, Москва, Центральный федеральный округ, 119602, Россия",
          "lat": 55.6734977,
          "lon": 37.4731661
        }
      ]
    },
    {
      "name": "Образовательный центр «Протон»",
      "number": null,
      "district": "Филевский парк",
      "okrug": "ЗАО",
      "groupId": 2,
      "buildings": [
        {
          "name": "Образовательный центр «Протон». Школа на Новозаводской",
          "address": "Образовательный центр «Протон». Школа на Новозаводской, Новозаводская улица, Фили, район Филёвский Парк, Москва, Центральный федеральный округ, 121087, Россия",
          "lat": 55.7520538,
          "lon": 37.5044015
        }
      ]
    },
    {
      "name": "Школа №1194",
      "number": "1194",
      "district": "Крюково",
      "okrug": "ЗелАО",
      "groupId": 2,
      "buildings": [
        {
          "name": "Школа № 1194",
          "address": "Школа № 1194, корп. 1556, Панфиловский проспект, район Крюково, Зеленоград, Москва, Центральный федеральный округ, 124683, Россия",
          "lat": 55.9799365,
          "lon": 37.1537152
        },
        {
          "name": "Школа № 1194",
          "address": "Школа № 1194, корп. 1547, Панфиловский проспект, район Крюково, Зеленоград, Москва, Центральный федеральный округ, 124683, Россия",
          "lat": 55.9791276,
          "lon": 37.1567935
        },
        {
          "name": "Школа № 1194",
          "address": "Школа № 1194, корп. 1548, Панфиловский проспект, район Крюково, Зеленоград, Москва, Центральный федеральный округ, 124683, Россия",
          "lat": 55.9792588,
          "lon": 37.1548742
        },
        {
          "name": "Школа № 1194",
          "address": "Школа № 1194, корп. 1530, улица Логвиненко, Александровка, район Крюково, Зеленоград, Москва, Центральный федеральный округ, 124617, Россия",
          "lat": 55.9819831,
          "lon": 37.1566014
        },
        {
          "name": "Школа № 1194",
          "address": "Школа № 1194, корп. 1555, улица Логвиненко, Александровка, район Крюково, Зеленоград, Москва, Центральный федеральный округ, 124617, Россия",
          "lat": 55.9810757,
          "lon": 37.15371
        }
      ]
    },
    {
      "name": "Школа №1557 им. П.Л. Капицы",
      "number": "1557",
      "district": "Савелки",
      "okrug": "ЗелАО",
      "groupId": 2,
      "buildings": [
        {
          "name": "Школа № 1557 им. П. Капицы",
          "address": "Школа № 1557 им. П. Капицы, к509, улица Юности, район Савёлки, Зеленоград, Москва, Центральный федеральный округ, 124482, Россия",
          "lat": 55.998156,
          "lon": 37.2318548
        },
        {
          "name": "Школа № 1557 им. П. Капицы",
          "address": "Школа № 1557 им. П. Капицы, корп. 529, к529, Никольский проезд, 5а микрорайон, Молодёжный жилой комплекс, район Савёлки, Зеленоград, Москва, Центральный федеральный округ, 124536, Россия",
          "lat": 55.99008,
          "lon": 37.2554984
        },
        {
          "name": "Школа № 1557 им. П.Л. Капицы",
          "address": "Школа № 1557 им. П.Л. Капицы, корп. 344А, к344А, проезд B, 3-й микрорайон, район Савёлки, Зеленоград, Москва, Центральный федеральный округ, 124483, Россия",
          "lat": 55.9943356,
          "lon": 37.2220901
        }
      ]
    },
    {
      "name": "Школа №2083",
      "number": "2083",
      "district": "поселение Рязановское",
      "okrug": "НАО",
      "groupId": 2,
      "buildings": [
        {
          "name": "Школа 2083",
          "address": "Школа 2083, 4, Высокая улица, район Щербинка, Москва, Центральный федеральный округ, 142106, Россия",
          "lat": 55.4480218,
          "lon": 37.5236519
        }
      ]
    },
    {
      "name": "Школа №152",
      "number": "152",
      "district": "Аэропорт",
      "okrug": "САО",
      "groupId": 2,
      "buildings": [
        {
          "name": "Школа №152",
          "address": "Школа №152, улица Пилота Нестерова, район Аэропорт, Москва, Центральный федеральный округ, 125993, Россия",
          "lat": 55.7959252,
          "lon": 37.5452147
        }
      ]
    },
    {
      "name": "Школа №1575",
      "number": "1575",
      "district": "Аэропорт",
      "okrug": "САО",
      "groupId": 2,
      "buildings": [
        {
          "name": "Лицей №1575",
          "address": "Лицей №1575, Планетная улица, район Аэропорт, Москва, Центральный федеральный округ, 125167, Россия",
          "lat": 55.801355,
          "lon": 37.5467269
        },
        {
          "name": "Лицей №1575",
          "address": "Лицей №1575, улица Усиевича, район Аэропорт, Москва, Центральный федеральный округ, 125190, Россия",
          "lat": 55.8049705,
          "lon": 37.5320101
        }
      ]
    },
    {
      "name": "Школа №2098 им. Л.М. Доватора",
      "number": "2098",
      "district": "Западное Дегунино",
      "okrug": "САО",
      "groupId": 2,
      "buildings": [
        {
          "name": "Школа № 2098 им. Героя Советского Союза Л.М. Доватора",
          "address": "Школа № 2098 им. Героя Советского Союза Л.М. Доватора, Новая улица, 12-й микрорайон Дегунино, район Западное Дегунино, Москва, Центральный федеральный округ, 125635, Россия",
          "lat": 55.8788488,
          "lon": 37.5142227
        }
      ]
    },
    {
      "name": "Школа №1252 им. Сервантеса",
      "number": "1252",
      "district": "Сокол",
      "okrug": "САО",
      "groupId": 2,
      "buildings": [
        {
          "name": "Школа № 1252 имени Сервантеса. Старшая школа",
          "address": "Школа № 1252 имени Сервантеса. Старшая школа, Малый Песчаный переулок, посёлок Сокол, район Сокол, Москва, Центральный федеральный округ, 125080, Россия",
          "lat": 55.8045368,
          "lon": 37.5070809
        },
        {
          "name": "Школа № 1252 имени Сервантеса",
          "address": "Школа № 1252 имени Сервантеса, Дубосековская улица, посёлок Сокол, район Сокол, Москва, Центральный федеральный округ, 125080, Россия",
          "lat": 55.810225,
          "lon": 37.4964013
        }
      ]
    },
    {
      "name": "Школа №218",
      "number": "218",
      "district": "Тимирязевский",
      "okrug": "САО",
      "groupId": 2,
      "buildings": [
        {
          "name": "Центр образования № 218",
          "address": "Центр образования № 218, 5А, Дмитровское шоссе, Тимирязевский район, Москва, Центральный федеральный округ, 127422, Россия",
          "lat": 55.812179,
          "lon": 37.5750162
        }
      ]
    },
    {
      "name": "Школа №1474",
      "number": "1474",
      "district": "Ховрино",
      "okrug": "САО",
      "groupId": 2,
      "buildings": [
        {
          "name": "Школа № 1474. Подразделение 2",
          "address": "Школа № 1474. Подразделение 2, проектируемый проезд № 5457, район Ховрино, Москва, Центральный федеральный округ, 125475, Россия",
          "lat": 55.8734422,
          "lon": 37.4890054
        },
        {
          "name": "Школа № 1474. Подразделение 4",
          "address": "Школа № 1474. Подразделение 4, проектируемый проезд № 5457, район Ховрино, Москва, Центральный федеральный округ, 125475, Россия",
          "lat": 55.8723179,
          "lon": 37.4900428
        },
        {
          "name": "Школа № 1474",
          "address": "Школа № 1474, подразделение 12, 16А, Клинская улица, район Ховрино, Москва, Центральный федеральный округ, 125475, Россия",
          "lat": 55.8706357,
          "lon": 37.4933074
        }
      ]
    },
    {
      "name": "Пансион воспитанниц МО РФ",
      "number": null,
      "district": "Хорошевский",
      "okrug": "САО",
      "groupId": 2,
      "buildings": []
    },
    {
      "name": "Лицей Финуниверситета",
      "number": null,
      "district": "Хорошевский",
      "okrug": "САО",
      "groupId": 2,
      "buildings": []
    },
    {
      "name": "Школа №1558 им. Росалии де Кастро",
      "number": "1558",
      "district": "Бабушкинский",
      "okrug": "СВАО",
      "groupId": 2,
      "buildings": [
        {
          "name": "ГБОУ школа № 1558 имени Росалии де Кастро",
          "address": "ГБОУ школа № 1558 имени Росалии де Кастро, Ленская улица, Бабушкинский район, Москва, Центральный федеральный округ, 129327, Россия",
          "lat": 55.8678552,
          "lon": 37.6601264
        },
        {
          "name": "Гимназия №1558",
          "address": "Гимназия №1558, Чукотский проезд, Бабушкинский район, Москва, Центральный федеральный округ, 129221, Россия",
          "lat": 55.8685502,
          "lon": 37.6533854
        }
      ]
    },
    {
      "name": "Школа №1449 им. М.В. Водопьянова",
      "number": "1449",
      "district": "Лианозово",
      "okrug": "СВАО",
      "groupId": 2,
      "buildings": [
        {
          "name": "Школа № 1449",
          "address": "Школа № 1449, учебный корпус 1, 6А, Угличская улица, район Лианозово, Москва, Центральный федеральный округ, 127572, Россия",
          "lat": 55.8948649,
          "lon": 37.5706319
        },
        {
          "name": "Школа № 1449",
          "address": "Школа № 1449, учебный корпус 2, 10А, Череповецкая улица, район Лианозово, Москва, Центральный федеральный округ, 127572, Россия",
          "lat": 55.8970951,
          "lon": 37.5711576
        }
      ]
    },
    {
      "name": "Школа Марьина Роща им. В.Ф. Орлова",
      "number": null,
      "district": "Марьина роща",
      "okrug": "СВАО",
      "groupId": 2,
      "buildings": [
        {
          "name": "Школа Марьина роща им. В. Ф. Орлова",
          "address": "Школа Марьина роща им. В. Ф. Орлова, Трифоновская улица, район Марьина Роща, Москва, Центральный федеральный округ, 103030, Россия",
          "lat": 55.7893179,
          "lon": 37.6158037
        }
      ]
    },
    {
      "name": "Школа №1518",
      "number": "1518",
      "district": "Останкинский",
      "okrug": "СВАО",
      "groupId": 2,
      "buildings": [
        {
          "name": "Школа № 1518",
          "address": "Школа № 1518, Большая Марьинская улица, Останкинский район, Москва, Центральный федеральный округ, 129085, Россия",
          "lat": 55.8036296,
          "lon": 37.6347365
        }
      ]
    },
    {
      "name": "Школа №1537 «Информационные технологии»",
      "number": "1537",
      "district": "Ярославский",
      "okrug": "СВАО",
      "groupId": 2,
      "buildings": [
        {
          "name": "Лицей №1537",
          "address": "Лицей №1537, улица Проходчиков, Ярославский район, Москва, Центральный федеральный округ, 129347, Россия",
          "lat": 55.8742782,
          "lon": 37.7192234
        }
      ]
    },
    {
      "name": "Школа №1298 «Профиль Куркино»",
      "number": "1298",
      "district": "Куркино",
      "okrug": "СЗАО",
      "groupId": 2,
      "buildings": [
        {
          "name": "Школа №1298 «Профиль Куркино»",
          "address": "Школа №1298 «Профиль Куркино», Соколово-Мещерская улица, Машкино, район Куркино, Москва, Центральный федеральный округ, 125466, Россия",
          "lat": 55.9004133,
          "lon": 37.3838355
        }
      ]
    },
    {
      "name": "Школа №1538",
      "number": "1538",
      "district": "Митино",
      "okrug": "СЗАО",
      "groupId": 2,
      "buildings": [
        {
          "name": "Школа № 1538. Начальная школа",
          "address": "Школа № 1538. Начальная школа, Цариков переулок, район Митино, Москва, Центральный федеральный округ, 125464, Россия",
          "lat": 55.8393504,
          "lon": 37.3816825
        },
        {
          "name": "Школа № 1538",
          "address": "Школа № 1538, 14, Митинская улица, район Митино, Москва, Центральный федеральный округ, 125310, Россия",
          "lat": 55.8411949,
          "lon": 37.3751435
        },
        {
          "name": "Школа № 1538. Начальная школа",
          "address": "Школа № 1538. Начальная школа, 16 к5, Пятницкое шоссе (дублёр), район Митино, Москва, Центральный федеральный округ, 125464, Россия",
          "lat": 55.8415528,
          "lon": 37.3886709
        }
      ]
    },
    {
      "name": "Школа №1571",
      "number": "1571",
      "district": "Северное Тушино",
      "okrug": "СЗАО",
      "groupId": 2,
      "buildings": [
        {
          "name": "Лицей № 1571 корпус 3",
          "address": "Лицей № 1571 корпус 3, Алёшкинский проезд, Алёшкино, район Северное Тушино, Москва, Центральный федеральный округ, 125481, Россия",
          "lat": 55.8626352,
          "lon": 37.4417742
        },
        {
          "name": "Лицей № 1571",
          "address": "Лицей № 1571, корпус 7 «Созвездие», улица Фомичёвой, район Северное Тушино, Москва, Центральный федеральный округ, 125481, Россия",
          "lat": 55.8588264,
          "lon": 37.4441923
        }
      ]
    },
    {
      "name": "Школа №1517",
      "number": "1517",
      "district": "Хорошево-Мневники",
      "okrug": "СЗАО",
      "groupId": 2,
      "buildings": [
        {
          "name": "Гимназия 1517. Корпус школьного образования № 7",
          "address": "Гимназия 1517. Корпус школьного образования № 7, Карамышевская набережная, район Хорошёво-Мнёвники, Москва, Центральный федеральный округ, 123423, Россия",
          "lat": 55.7697871,
          "lon": 37.4715715
        }
      ]
    },
    {
      "name": "Школа «Покровский квартал»",
      "number": null,
      "district": "Басманный",
      "okrug": "ЦАО",
      "groupId": 2,
      "buildings": [
        {
          "name": "Школа \"Покровский квартал\"",
          "address": "Школа \"Покровский квартал\", шоссе Энтузиастов (дублёр), район Ивановское, Москва, Центральный федеральный округ, 105568, Россия",
          "lat": 55.7728135,
          "lon": 37.835508
        },
        {
          "name": "Школа \"Покровский квартал\"",
          "address": "Школа \"Покровский квартал\", Фурманный переулок, Басманный район, Москва, Центральный федеральный округ, 105062, Россия",
          "lat": 55.7633715,
          "lon": 37.6487594
        }
      ]
    },
    {
      "name": "Школа №2107",
      "number": "2107",
      "district": "Мещанский",
      "okrug": "ЦАО",
      "groupId": 2,
      "buildings": [
        {
          "name": "Школа № 2107. Здание школы \"Школа им. В. М. Комарова\"",
          "address": "Школа № 2107. Здание школы \"Школа им. В. М. Комарова\", Напрудный переулок, Мещанский район, Москва, Центральный федеральный округ, 129110, Россия",
          "lat": 55.7875411,
          "lon": 37.6301918
        },
        {
          "name": "Школа № 2107. Школа на Гиляровского",
          "address": "Школа № 2107. Школа на Гиляровского, улица Гиляровского, Мещанский район, Москва, Центральный федеральный округ, 129090, Россия",
          "lat": 55.7777275,
          "lon": 37.6300117
        },
        {
          "name": "Школа № 2107. Школа им. Ромена Роллана",
          "address": "Школа № 2107. Школа им. Ромена Роллана, Больничный переулок, Мещанский район, Москва, Центральный федеральный округ, 129110, Россия",
          "lat": 55.7854892,
          "lon": 37.6321716
        },
        {
          "name": "Школа № 2107. Физико-математическая школа",
          "address": "Школа № 2107. Физико-математическая школа, проспект Мира, Мещанский район, Москва, Центральный федеральный округ, 129110, Россия",
          "lat": 55.7821737,
          "lon": 37.6350593
        },
        {
          "name": "Школа № 2107. Здание \"На Мещанской\"",
          "address": "Школа № 2107. Здание \"На Мещанской\", Мещанская улица, Мещанский район, Москва, Центральный федеральный округ, 129090, Россия",
          "lat": 55.7769404,
          "lon": 37.6274403
        }
      ]
    },
    {
      "name": "Школа №2123 им. Мигеля Эрнандеса",
      "number": "2123",
      "district": "Пресненский",
      "okrug": "ЦАО",
      "groupId": 2,
      "buildings": [
        {
          "name": "Школа № 2123 имени Мигеля Эрнандеса. Корпус \"Стодесятая\"",
          "address": "Школа № 2123 имени Мигеля Эрнандеса. Корпус \"Стодесятая\", Столовый переулок, 47, Пресненский район, Москва, Центральный федеральный округ, 121069, Россия",
          "lat": 55.7568706,
          "lon": 37.5949384
        }
      ]
    },
    {
      "name": "Школа №1529 им. А.С. Грибоедова",
      "number": "1529",
      "district": "Хамовники",
      "okrug": "ЦАО",
      "groupId": 2,
      "buildings": [
        {
          "name": "Школа № 1529 имени А. С. Грибоедова. Здание № 4",
          "address": "Школа № 1529 имени А. С. Грибоедова. Здание № 4, Староконюшенный переулок, 33, район Хамовники, Москва, Центральный федеральный округ, 121002, Россия",
          "lat": 55.746986,
          "lon": 37.5957999
        },
        {
          "name": "Школа № 1529 имени А. С. Грибоедова. Здание № 3",
          "address": "Школа № 1529 имени А. С. Грибоедова. Здание № 3, Новокрымский проезд, район Хамовники, Москва, Центральный федеральный округ, 119034, Россия",
          "lat": 55.7355849,
          "lon": 37.5979574
        },
        {
          "name": "Школа № 1529 имени А. С. Грибоедова. Здание № 5",
          "address": "Школа № 1529 имени А. С. Грибоедова. Здание № 5, Пожарский переулок, 33, район Хамовники, Москва, Центральный федеральный округ, 119034, Россия",
          "lat": 55.7414794,
          "lon": 37.6035123
        },
        {
          "name": "Школа № 1529 имени А. С. Грибоедова. Здание № 2",
          "address": "Школа № 1529 имени А. С. Грибоедова. Здание № 2, Гагаринский переулок, 33, район Хамовники, Москва, Центральный федеральный округ, 121002, Россия",
          "lat": 55.7450912,
          "lon": 37.5925733
        }
      ]
    },
    {
      "name": "Школа №171",
      "number": "171",
      "district": "Хамовники",
      "okrug": "ЦАО",
      "groupId": 2,
      "buildings": [
        {
          "name": "Школа № 171 Школьное отделение № 2",
          "address": "Школа № 171 Школьное отделение № 2, Комсомольский проспект, квартал 533, район Хамовники, Москва, Центральный федеральный округ, 119146, Россия",
          "lat": 55.7192774,
          "lon": 37.5748904
        }
      ]
    },
    {
      "name": "Школа №1359 им. М.Л. Миля",
      "number": "1359",
      "district": "Выхино-Жулебино",
      "okrug": "ЮВАО",
      "groupId": 2,
      "buildings": [
        {
          "name": "Школа №1359",
          "address": "Школа №1359, Пронская улица, 1-й микрорайон Жулебино, район Выхино-Жулебино, Москва, Центральный федеральный округ, 109145, Россия",
          "lat": 55.7017089,
          "lon": 37.8449085
        }
      ]
    },
    {
      "name": "Школа №1547",
      "number": "1547",
      "district": "Марьино",
      "okrug": "ЮВАО",
      "groupId": 2,
      "buildings": [
        {
          "name": "Школа № 1547",
          "address": "Школа № 1547, улица Перерва, район Марьино, Москва, Центральный федеральный округ, 109451, Россия",
          "lat": 55.6638579,
          "lon": 37.7673272
        },
        {
          "name": "Школа № 1194",
          "address": "Школа № 1194, корп. 1547, Панфиловский проспект, район Крюково, Зеленоград, Москва, Центральный федеральный округ, 124683, Россия",
          "lat": 55.9791276,
          "lon": 37.1567935
        },
        {
          "name": "Лицей № 1547",
          "address": "Лицей № 1547, 47, Белореченская улица, район Марьино, Москва, Центральный федеральный округ, 109387, Россия",
          "lat": 55.6624705,
          "lon": 37.7764764
        }
      ]
    },
    {
      "name": "Школа №2048",
      "number": "2048",
      "district": "Некрасовка",
      "okrug": "ЮВАО",
      "groupId": 2,
      "buildings": [
        {
          "name": "Школа №2048",
          "address": "Школа №2048, 7 с1, Причальный проезд, Шелепиха, Пресненский район, Москва, Центральный федеральный округ, 123290, Россия",
          "lat": 55.7593098,
          "lon": 37.5176352
        }
      ]
    },
    {
      "name": "Академическая школа №1534",
      "number": "1534",
      "district": "Академический",
      "okrug": "ЮЗАО",
      "groupId": 2,
      "buildings": [
        {
          "name": "ГБОУ Гимназия № 1534",
          "address": "ГБОУ Гимназия № 1534, 11, улица Кедрова, Академический район, Москва, Центральный федеральный округ, 117036, Россия",
          "lat": 55.6851997,
          "lon": 37.5742659
        }
      ]
    },
    {
      "name": "Школа «Воробьевы горы»",
      "number": null,
      "district": "Гагаринский",
      "okrug": "ЮЗАО",
      "groupId": 2,
      "buildings": [
        {
          "name": "Высшая школа бизнеса",
          "address": "Высшая школа бизнеса, улица Лебедева, Ленинские горы, Московский государственный университет им. М. В. Ломоносова, район Раменки, Москва, Центральный федеральный округ, 119234, Россия",
          "lat": 55.6998415,
          "lon": 37.5408559
        },
        {
          "name": "Высшая школа бизнеса",
          "address": "Высшая школа бизнеса, 1 с44, Ленинские горы, Московский государственный университет им. М. В. Ломоносова, район Раменки, Москва, Центральный федеральный округ, 119991, Россия",
          "lat": 55.6998415,
          "lon": 37.5408559
        },
        {
          "name": "Московская школа экономики",
          "address": "Московская школа экономики, 1 с61, Ленинские горы, Московский государственный университет им. М. В. Ломоносова, район Раменки, Москва, Центральный федеральный округ, 119991, Россия",
          "lat": 55.7061069,
          "lon": 37.5194813
        },
        {
          "name": "Высшая школа бизнеса",
          "address": "Высшая школа бизнеса, 1 с52А, Ленинские горы, Московский государственный университет им. М. В. Ломоносова, район Раменки, Москва, Центральный федеральный округ, 119991, Россия",
          "lat": 55.6983871,
          "lon": 37.5315399
        }
      ]
    },
    {
      "name": "Школа №1533 «ЛИТ»",
      "number": "1533",
      "district": "Гагаринский",
      "okrug": "ЮЗАО",
      "groupId": 2,
      "buildings": [
        {
          "name": "Лицей № 1533",
          "address": "Лицей № 1533, 24 к4, Профсоюзная улица, Академический район, Москва, Центральный федеральный округ, 117292, Россия",
          "lat": 55.6806281,
          "lon": 37.5619264
        }
      ]
    },
    {
      "name": "Школа №192",
      "number": "192",
      "district": "Гагаринский",
      "okrug": "ЮЗАО",
      "groupId": 2,
      "buildings": [
        {
          "name": "Школа № 192",
          "address": "Школа № 192, улица Косыгина, Гагаринский район, Москва, Центральный федеральный округ, 119334, Россия",
          "lat": 55.7066955,
          "lon": 37.5748985
        }
      ]
    },
    {
      "name": "Школа №1514",
      "number": "1514",
      "district": "Ломоносовский",
      "okrug": "ЮЗАО",
      "groupId": 2,
      "buildings": [
        {
          "name": "Школа № 1514",
          "address": "Школа № 1514, проспект Вернадского (дублёр), Ломоносовский район, Москва, Центральный федеральный округ, 119311, Россия",
          "lat": 55.6865508,
          "lon": 37.529414
        },
        {
          "name": "Школа № 1514",
          "address": "Школа № 1514, 10, улица Крупской, Ломоносовский район, Москва, Центральный федеральный округ, 119311, Россия",
          "lat": 55.6863317,
          "lon": 37.5284751
        }
      ]
    },
    {
      "name": "Школа №109",
      "number": "109",
      "district": "Теплый Стан",
      "okrug": "ЮЗАО",
      "groupId": 2,
      "buildings": [
        {
          "name": "Школа №109. Основная школа",
          "address": "Школа №109. Основная школа, улица Академика Бакулева, район Тёплый Стан, Москва, Центральный федеральный округ, 117133, Россия",
          "lat": 55.6407011,
          "lon": 37.4753827
        },
        {
          "name": "Школа №109. Начальная школа",
          "address": "Школа №109. Начальная школа, улица Академика Бакулева, район Тёплый Стан, Москва, Центральный федеральный округ, 117513, Россия",
          "lat": 55.6427466,
          "lon": 37.4785964
        }
      ]
    },
    {
      "name": "Школа №1532",
      "number": "1532",
      "district": "Теплый Стан",
      "okrug": "ЮЗАО",
      "groupId": 2,
      "buildings": [
        {
          "name": "Школа № 1194",
          "address": "Школа № 1194, корп. 1532, улица Логвиненко, Александровка, район Крюково, Зеленоград, Москва, Центральный федеральный округ, 124617, Россия",
          "lat": 55.9813196,
          "lon": 37.1581653
        }
      ]
    },
    {
      "name": "Школа №1980",
      "number": "1980",
      "district": "Южное Бутово",
      "okrug": "ЮЗАО",
      "groupId": 2,
      "buildings": [
        {
          "name": "Школа №1980",
          "address": "Школа №1980, 56, Чечёрский проезд, Чернево, район Южное Бутово, Москва, Центральный федеральный округ, 117041, Россия",
          "lat": 55.5321871,
          "lon": 37.5284424
        },
        {
          "name": "Школа №1980",
          "address": "Школа №1980, 42, Чечёрский проезд, Щиброво, район Южное Бутово, Москва, Центральный федеральный округ, 117041, Россия",
          "lat": 55.5345802,
          "lon": 37.5327716
        }
      ]
    },
    {
      "name": "Предуниверситарий МИФИ",
      "number": null,
      "district": "Москворечье-Сабурово",
      "okrug": "ЮАО",
      "groupId": 2,
      "buildings": []
    },
    {
      "name": "Школа №1158",
      "number": "1158",
      "district": "Чертаново Северное",
      "okrug": "ЮАО",
      "groupId": 2,
      "buildings": [
        {
          "name": "Школа 1158",
          "address": "Школа 1158, Сумской проезд, Северное Чертаново, микрорайон Северное Чертаново, район Чертаново Северное, Москва, Центральный федеральный округ, 117648, Россия",
          "lat": 55.6343585,
          "lon": 37.5962481
        }
      ]
    },
    {
      "name": "Школа №1797 «Богородская»",
      "number": "1797",
      "district": "Богородское",
      "okrug": "ВАО",
      "groupId": 3,
      "buildings": [
        {
          "name": "Школа № 1797 \"Богородская\". Корпус \"Солнышко\"",
          "address": "Школа № 1797 \"Богородская\". Корпус \"Солнышко\", Бойцовая улица, район Богородское, Москва, Центральный федеральный округ, 107150, Россия",
          "lat": 55.8097851,
          "lon": 37.7190151
        }
      ]
    },
    {
      "name": "Вешняковская школа",
      "number": null,
      "district": "Вешняки",
      "okrug": "ВАО",
      "groupId": 3,
      "buildings": [
        {
          "name": "Вешняковская школа",
          "address": "Вешняковская школа, Реутовская улица, район Вешняки, Москва, Центральный федеральный округ, 111539, Россия",
          "lat": 55.741006,
          "lon": 37.8328714
        },
        {
          "name": "Вешняковская школа",
          "address": "Вешняковская школа, аллея Жемчуговой, район Вешняки, Москва, Центральный федеральный округ, 111402, Россия",
          "lat": 55.7323066,
          "lon": 37.8275728
        }
      ]
    },
    {
      "name": "Школа №1512 им. Алии Молдагуловой",
      "number": "1512",
      "district": "Вешняки",
      "okrug": "ВАО",
      "groupId": 3,
      "buildings": [
        {
          "name": "Гимназия №1512",
          "address": "Гимназия №1512, 24А к1, Косинская улица, район Вешняки, Москва, Центральный федеральный округ, 111538, Россия",
          "lat": 55.7185418,
          "lon": 37.8303307
        }
      ]
    },
    {
      "name": "Школа №1290",
      "number": "1290",
      "district": "Измайлово",
      "okrug": "ВАО",
      "groupId": 3,
      "buildings": [
        {
          "name": "Школа №1290",
          "address": "Школа №1290, Первомайская улица, район Измайлово, Москва, Центральный федеральный округ, 105043, Россия",
          "lat": 55.7939426,
          "lon": 37.7931654
        }
      ]
    },
    {
      "name": "Школа №2026",
      "number": "2026",
      "district": "Косино-Ухтомский",
      "okrug": "ВАО",
      "groupId": 3,
      "buildings": [
        {
          "name": "Школа №2026 (учебный корпус №13)",
          "address": "Школа №2026 (учебный корпус №13), улица Медведева, Кожухово, район Косино-Ухтомский, Москва, Центральный федеральный округ, 125009, Россия",
          "lat": 55.7211429,
          "lon": 37.8949373
        },
        {
          "name": "Школа №2026 (учебный корпус №11)",
          "address": "Школа №2026 (учебный корпус №11), 6, улица Медведева, Кожухово, район Косино-Ухтомский, Москва, Центральный федеральный округ, 125009, Россия",
          "lat": 55.7178148,
          "lon": 37.884216
        },
        {
          "name": "Школа №2026 (учебный корпус №12)",
          "address": "Школа №2026 (учебный корпус №12), Лухмановская улица, Кожухово, район Косино-Ухтомский, Москва, Центральный федеральный округ, 111625, Россия",
          "lat": 55.7205309,
          "lon": 37.9069763
        }
      ]
    },
    {
      "name": "Школа №2031",
      "number": "2031",
      "district": "Косино-Ухтомский",
      "okrug": "ВАО",
      "groupId": 3,
      "buildings": [
        {
          "name": "Школа №2031",
          "address": "Школа №2031, 1А, Муромская улица, Косино, район Косино-Ухтомский, Москва, Центральный федеральный округ, 111621, Россия",
          "lat": 55.713429,
          "lon": 37.8520237
        }
      ]
    },
    {
      "name": "Школа №1505 «Преображенская»",
      "number": "1505",
      "district": "Преображенское",
      "okrug": "ВАО",
      "groupId": 3,
      "buildings": [
        {
          "name": "Школа № 1505 «Преображенская»",
          "address": "Школа № 1505 «Преображенская», Проектируемый проезд № 6478, Черкизово, район Преображенское, Москва, Центральный федеральный округ, 105318, Россия",
          "lat": 55.7917118,
          "lon": 37.7257593
        },
        {
          "name": "Школа № 1505 «Преображенская»",
          "address": "Школа № 1505 «Преображенская», 6-я улица Черкизова, Черкизово, район Преображенское, Москва, Центральный федеральный округ, 107392, Россия",
          "lat": 55.795487,
          "lon": 37.7283115
        }
      ]
    },
    {
      "name": "Школа №1748 «Вертикаль»",
      "number": "1748",
      "district": "Северное Измайлово",
      "okrug": "ВАО",
      "groupId": 3,
      "buildings": [
        {
          "name": "Школа №1748 \"Вертикаль\". Корпус 2",
          "address": "Школа №1748 \"Вертикаль\". Корпус 2, Первомайский проезд, район Восточное Измайлово, Москва, Центральный федеральный округ, 105203, Россия",
          "lat": 55.802331,
          "lon": 37.8331536
        },
        {
          "name": "Школа №1748 \"Вертикаль\". Корпус №1",
          "address": "Школа №1748 \"Вертикаль\". Корпус №1, 16-я Парковая улица, район Северное Измайлово, Москва, Центральный федеральный округ, 105484, Россия",
          "lat": 55.8050617,
          "lon": 37.8279377
        }
      ]
    },
    {
      "name": "Школа №1362",
      "number": "1362",
      "district": "Соколиная Гора",
      "okrug": "ВАО",
      "groupId": 3,
      "buildings": [
        {
          "name": "Школа № 1362",
          "address": "Школа № 1362, улица Ибрагимова, район Соколиная Гора, Москва, Центральный федеральный округ, 105318, Россия",
          "lat": 55.7819118,
          "lon": 37.7323815
        }
      ]
    },
    {
      "name": "Школа №1584",
      "number": "1584",
      "district": "Кунцево",
      "okrug": "ЗАО",
      "groupId": 3,
      "buildings": [
        {
          "name": "Гимназия № 1584",
          "address": "Гимназия № 1584, 24 к3, Рублёвское шоссе (дублёр), район Кунцево, Москва, Центральный федеральный округ, 121615, Россия",
          "lat": 55.7453327,
          "lon": 37.4293318
        }
      ]
    },
    {
      "name": "Школа №1400",
      "number": "1400",
      "district": "Можайский",
      "okrug": "ЗАО",
      "groupId": 3,
      "buildings": [
        {
          "name": "Школа № 1400",
          "address": "Школа № 1400, 1 ДО, Можайское шоссе (дублёр), Можайский район, Москва, Центральный федеральный округ, 121451, Россия",
          "lat": 55.7191818,
          "lon": 37.4096116
        },
        {
          "name": "Школа № 1400",
          "address": "Школа № 1400, 2 ДО, Можайское шоссе (дублёр), Можайский район, Москва, Центральный федеральный округ, 121451, Россия",
          "lat": 55.7190977,
          "lon": 37.4112714
        },
        {
          "name": "Школа № 1400",
          "address": "Школа № 1400, 3 ДО, улица Маршала Неделина, Сетунь, Можайский район, Москва, Центральный федеральный округ, 121451, Россия",
          "lat": 55.7238909,
          "lon": 37.4095085
        }
      ]
    },
    {
      "name": "Школа №1018",
      "number": "1018",
      "district": "Ново-Переделкино",
      "okrug": "ЗАО",
      "groupId": 3,
      "buildings": [
        {
          "name": "Школа №1018",
          "address": "Школа №1018, улица Шолохова, Ново-Переделкино, Москва, Центральный федеральный округ, 119634, Россия",
          "lat": 55.6412313,
          "lon": 37.3508262
        }
      ]
    },
    {
      "name": "Школа №1467",
      "number": "1467",
      "district": "Ново-Переделкино",
      "okrug": "ЗАО",
      "groupId": 3,
      "buildings": [
        {
          "name": "Центр образования № 1467",
          "address": "Центр образования № 1467, улица Шолохова, Ново-Переделкино, Москва, Центральный федеральный округ, 119634, Россия",
          "lat": 55.6394665,
          "lon": 37.3476701
        }
      ]
    },
    {
      "name": "Школа №814",
      "number": "814",
      "district": "Очаково-Матвеевское",
      "okrug": "ЗАО",
      "groupId": 3,
      "buildings": [
        {
          "name": "Школа № 814",
          "address": "Школа № 814, Матвеевская улица, Матвеевское, район Очаково-Матвеевское, Москва, Центральный федеральный округ, 119517, Россия",
          "lat": 55.7053732,
          "lon": 37.4651983
        },
        {
          "name": "Школа № 814. Корпус 5",
          "address": "Школа № 814. Корпус 5, Староволынская улица, Жилой комплекс «Нежинский Ковчег», район Очаково-Матвеевское, Москва, Центральный федеральный округ, 121352, Россия",
          "lat": 55.7140783,
          "lon": 37.4818839
        },
        {
          "name": "Школа № 814. Учебный корпус № 1",
          "address": "Школа № 814. Учебный корпус № 1, Нежинская улица, Жилой комплекс «Нежинский Ковчег», район Очаково-Матвеевское, Москва, Центральный федеральный округ, 119517, Россия",
          "lat": 55.7068647,
          "lon": 37.474303
        },
        {
          "name": "ГБОУ школа № 814 Учебный корпус 2",
          "address": "ГБОУ школа № 814 Учебный корпус 2, 5 к2, Веерная улица, Жилой комплекс «Нежинский Ковчег», район Очаково-Матвеевское, Москва, Центральный федеральный округ, 119501, Россия",
          "lat": 55.7079243,
          "lon": 37.475947
        }
      ]
    },
    {
      "name": "Школа №1000",
      "number": "1000",
      "district": "Солнцево",
      "okrug": "ЗАО",
      "groupId": 3,
      "buildings": [
        {
          "name": "Школа № 1000. Корпус школьного образования «Татьянин Парк»",
          "address": "Школа № 1000. Корпус школьного образования «Татьянин Парк», Центральная улица, район Солнцево, Говорово, Москва, Центральный федеральный округ, 117607, Россия",
          "lat": 55.6547491,
          "lon": 37.4284951
        }
      ]
    },
    {
      "name": "Школа «Интеграл»",
      "number": null,
      "district": "Филевский парк",
      "okrug": "ЗАО",
      "groupId": 3,
      "buildings": [
        {
          "name": "Образовательная школа \"Академическая гимназия\"",
          "address": "Образовательная школа \"Академическая гимназия\", Зарайская улица, Рязанский район, Москва, Центральный федеральный округ, 109428, Россия",
          "lat": 55.7301978,
          "lon": 37.7684475
        }
      ]
    },
    {
      "name": "Школа «Интеллектуал»",
      "number": null,
      "district": "Фили-Давыдково",
      "okrug": "ЗАО",
      "groupId": 3,
      "buildings": [
        {
          "name": "Школа-интернат \"Интеллектуал\"",
          "address": "Школа-интернат \"Интеллектуал\", 13, Кременчугская улица, Давыдково, район Фили-Давыдково, Москва, Центральный федеральный округ, 119517, Россия",
          "lat": 55.7181394,
          "lon": 37.4644319
        }
      ]
    },
    {
      "name": "Школа №1589",
      "number": "1589",
      "district": "Фили-Давыдково",
      "okrug": "ЗАО",
      "groupId": 3,
      "buildings": []
    },
    {
      "name": "Школа №2101",
      "number": "2101",
      "district": "Фили-Давыдково",
      "okrug": "ЗАО",
      "groupId": 3,
      "buildings": [
        {
          "name": "Школа № 2101",
          "address": "Школа № 2101, 39, Большая Филёвская улица, район Фили-Давыдково, Москва, Центральный федеральный округ, 121433, Россия",
          "lat": 55.7415895,
          "lon": 37.4777673
        }
      ]
    },
    {
      "name": "Школа №1150 им. К.К. Рокоссовского",
      "number": "1150",
      "district": "Крюково",
      "okrug": "ЗелАО",
      "groupId": 3,
      "buildings": [
        {
          "name": "Школа № 1150",
          "address": "Школа № 1150, Панфиловский проспект, район Крюково, Зеленоград, Москва, Центральный федеральный округ, 124683, Россия",
          "lat": 55.9751375,
          "lon": 37.1534854
        },
        {
          "name": "Школа № 1150 имени дважды Героя Советского Союза К.К. Рокоссовского",
          "address": "Школа № 1150 имени дважды Героя Советского Союза К.К. Рокоссовского, к1648, улица Каменка, Деревня Каменка, 16-й микрорайон, район Крюково, Зеленоград, Москва, Центральный федеральный округ, 124681, Россия",
          "lat": 55.9724485,
          "lon": 37.1597934
        }
      ]
    },
    {
      "name": "Школа №1151",
      "number": "1151",
      "district": "Крюково",
      "okrug": "ЗелАО",
      "groupId": 3,
      "buildings": [
        {
          "name": "Школа № 1151",
          "address": "Школа № 1151, к1469, Новокрюковская улица, 14-й микрорайон, Александровка, район Крюково, Зеленоград, Москва, Центральный федеральный округ, 124617, Россия",
          "lat": 55.9871165,
          "lon": 37.1553537
        },
        {
          "name": "Школа № 1151",
          "address": "Школа № 1151, здание 3, к1464, Новокрюковская улица, 14-й микрорайон, Александровка, район Крюково, Зеленоград, Москва, Центральный федеральный округ, 124617, Россия",
          "lat": 55.9858651,
          "lon": 37.1604511
        },
        {
          "name": "Школа № 1151",
          "address": "Школа № 1151, к1440, улица Александровка, 14-й микрорайон, Александровка, район Крюково, Зеленоград, Москва, Центральный федеральный округ, 124617, Россия",
          "lat": 55.9878657,
          "lon": 37.1523899
        }
      ]
    },
    {
      "name": "Школа №2065",
      "number": "2065",
      "district": "поселение Московский",
      "okrug": "НАО",
      "groupId": 3,
      "buildings": [
        {
          "name": "Школа № 2065",
          "address": "Школа № 2065, Центральная площадь, 1-й микрорайон, Филимонковский район, Московский, Москва, Центральный федеральный округ, 142784, Россия",
          "lat": 55.603405,
          "lon": 37.3457854
        },
        {
          "name": "ГБОУ Школа 2065 корпус 5",
          "address": "ГБОУ Школа 2065 корпус 5, улица Москвитина, Первый Московский, Филимонковский район, Московский, Москва, Центральный федеральный округ, 142784, Россия",
          "lat": 55.6008152,
          "lon": 37.3601007
        }
      ]
    },
    {
      "name": "ИТШ им. П.Р. Поповича",
      "number": null,
      "district": "Аэропорт",
      "okrug": "САО",
      "groupId": 3,
      "buildings": []
    },
    {
      "name": "Школа-интернат №2",
      "number": "2",
      "district": "Аэропорт",
      "okrug": "САО",
      "groupId": 3,
      "buildings": [
        {
          "name": "Школа 2",
          "address": "Школа 2, улица Полковника Милиции Курочкина, микрорайон В, район Троицк, Москва, Центральный федеральный округ, 108841, Россия",
          "lat": 55.4875343,
          "lon": 37.3009014
        }
      ]
    },
    {
      "name": "Школа №1570",
      "number": "1570",
      "district": "Беговой",
      "okrug": "САО",
      "groupId": 3,
      "buildings": [
        {
          "name": "Гимназия №1570",
          "address": "Гимназия №1570, 5-я улица Ямского Поля, район Беговой, Москва, Центральный федеральный округ, 125040, Россия",
          "lat": 55.7893535,
          "lon": 37.5773016
        }
      ]
    },
    {
      "name": "Школа №224",
      "number": "224",
      "district": "Войковский",
      "okrug": "САО",
      "groupId": 3,
      "buildings": [
        {
          "name": "Школа № 224",
          "address": "Школа № 224, 1А к8, Нарвская улица, Войковский район, Москва, Центральный федеральный округ, 125130, Россия",
          "lat": 55.8325915,
          "lon": 37.5026233
        },
        {
          "name": "Школа №224",
          "address": "Школа №224, 30, Ленинградское шоссе, Войковский район, Москва, Центральный федеральный округ, 125212, Россия",
          "lat": 55.8291658,
          "lon": 37.4909225
        }
      ]
    },
    {
      "name": "Школа «Дмитровский» им. В.П. Кислякова",
      "number": null,
      "district": "Дмитровский",
      "okrug": "САО",
      "groupId": 3,
      "buildings": []
    },
    {
      "name": "Школа №1576",
      "number": "1576",
      "district": "Коптево",
      "okrug": "САО",
      "groupId": 3,
      "buildings": [
        {
          "name": "Школа № 1576",
          "address": "Школа № 1576, улица Генерала Рычагова, район Коптево, Москва, Центральный федеральный округ, 125008, Россия",
          "lat": 55.8416905,
          "lon": 37.5418634
        },
        {
          "name": "Школа № 1576. 2-й корпус",
          "address": "Школа № 1576. 2-й корпус, Большая Академическая улица, Войковский район, Москва, Центральный федеральный округ, 127299, Россия",
          "lat": 55.8168486,
          "lon": 37.5198106
        },
        {
          "name": "Гимназия № 1576",
          "address": "Гимназия № 1576, Большая Академическая улица, район Коптево, Москва, Центральный федеральный округ, 125239, Россия",
          "lat": 55.8230476,
          "lon": 37.5291251
        }
      ]
    },
    {
      "name": "Школа №185 им. В.С. Гризодубовой",
      "number": "185",
      "district": "Коптево",
      "okrug": "САО",
      "groupId": 3,
      "buildings": [
        {
          "name": "Школа № 185",
          "address": "Школа № 185, Михалковская улица, район Коптево, Москва, Центральный федеральный округ, 125008, Россия",
          "lat": 55.8368223,
          "lon": 37.5354302
        }
      ]
    },
    {
      "name": "Школа №1590 им. В.В. Колесника",
      "number": "1590",
      "district": "Ховрино",
      "okrug": "САО",
      "groupId": 3,
      "buildings": [
        {
          "name": "Гимназия № 1590",
          "address": "Гимназия № 1590, Фестивальная улица, район Ховрино, Москва, Центральный федеральный округ, 125581, Россия",
          "lat": 55.8596417,
          "lon": 37.4968921
        },
        {
          "name": "Гимназия № 1590 им. Героя Советского Союза В. В. Колесника",
          "address": "Гимназия № 1590 им. Героя Советского Союза В. В. Колесника, 69, Фестивальная улица, район Ховрино, Москва, Центральный федеральный округ, 125414, Россия",
          "lat": 55.8626951,
          "lon": 37.5029816
        }
      ]
    },
    {
      "name": "Школа №597 «Новое поколение»",
      "number": "597",
      "district": "Ховрино",
      "okrug": "САО",
      "groupId": 3,
      "buildings": [
        {
          "name": "Школа №597",
          "address": "Школа №597, 19А, Петрозаводская улица, район Ховрино, Москва, Центральный федеральный округ, 125502, Россия",
          "lat": 55.8658512,
          "lon": 37.4897679
        }
      ]
    },
    {
      "name": "Школа №648 им. А.Г. Карлова",
      "number": "648",
      "district": "Ховрино",
      "okrug": "САО",
      "groupId": 3,
      "buildings": [
        {
          "name": "Школа № 648",
          "address": "Школа № 648, Флотская улица, Головинский район, Москва, Центральный федеральный округ, 125518, Россия",
          "lat": 55.854919,
          "lon": 37.5037482
        }
      ]
    },
    {
      "name": "Школа №1287",
      "number": "1287",
      "district": "Хорошевский",
      "okrug": "САО",
      "groupId": 3,
      "buildings": [
        {
          "name": "Школа №1287 (1)",
          "address": "Школа №1287 (1), проезд Аэропорта, Хорошёвский район, Москва, Центральный федеральный округ, 125167, Россия",
          "lat": 55.7962227,
          "lon": 37.5209323
        },
        {
          "name": "Школа №1287 (2)",
          "address": "Школа №1287 (2), улица Острякова, Хорошёвский район, Москва, Центральный федеральный округ, 125057, Россия",
          "lat": 55.7989068,
          "lon": 37.5254533
        }
      ]
    },
    {
      "name": "Школа №1288 им. Н.В. Троян",
      "number": "1288",
      "district": "Хорошевский",
      "okrug": "САО",
      "groupId": 3,
      "buildings": [
        {
          "name": "Школа № 1288",
          "address": "Школа № 1288, корпус № 10, улица Поликарпова, Хорошёвский район, Москва, Центральный федеральный округ, 125284, Россия",
          "lat": 55.7761138,
          "lon": 37.551338
        },
        {
          "name": "Школа № 1288",
          "address": "Школа № 1288, корпус № 3, 3, Хорошёвское шоссе, Хорошёвский район, Москва, Центральный федеральный округ, 123007, Россия",
          "lat": 55.7736037,
          "lon": 37.5420108
        },
        {
          "name": "Школа № 1288",
          "address": "Школа № 1288, корпус № 11, 21, Хорошёвское шоссе, Хорошёвский район, Москва, Центральный федеральный округ, 123007, Россия",
          "lat": 55.7760752,
          "lon": 37.5305349
        },
        {
          "name": "Школа № 1288",
          "address": "Школа № 1288, корпус № 6, 64А с2, Хорошёвское шоссе, Хорошёвский район, Москва, Центральный федеральный округ, 123007, Россия",
          "lat": 55.7781875,
          "lon": 37.5296595
        },
        {
          "name": "Школа № 1288",
          "address": "Школа № 1288, корпус № 5, 64А с1, Хорошёвское шоссе, Хорошёвский район, Москва, Центральный федеральный округ, 123007, Россия",
          "lat": 55.7776104,
          "lon": 37.5291318
        }
      ]
    },
    {
      "name": "Школа №1409",
      "number": "1409",
      "district": "Хорошевский",
      "okrug": "САО",
      "groupId": 3,
      "buildings": [
        {
          "name": "Школа №1409",
          "address": "Школа №1409, улица Авиаконструктора Микояна, Хорошёвский район, Москва, Центральный федеральный округ, 125252, Россия",
          "lat": 55.7885737,
          "lon": 37.5447091
        }
      ]
    },
    {
      "name": "Школа №1539",
      "number": "1539",
      "district": "Алексеевский",
      "okrug": "СВАО",
      "groupId": 3,
      "buildings": [
        {
          "name": "Гимназия №1539",
          "address": "Гимназия №1539, Староалексеевская улица, Алексеевский район, Москва, Центральный федеральный округ, 129626, Россия",
          "lat": 55.8105502,
          "lon": 37.6418408
        }
      ]
    },
    {
      "name": "Школа-интернат №1",
      "number": "1",
      "district": "Алексеевский",
      "okrug": "СВАО",
      "groupId": 3,
      "buildings": [
        {
          "name": "Школа № 2115. Корпус школьного образования № 1",
          "address": "Школа № 2115. Корпус школьного образования № 1, Новочерёмушкинская улица, район Черёмушки, Москва, Центральный федеральный округ, 117418, Россия",
          "lat": 55.6726939,
          "lon": 37.5667579
        },
        {
          "name": "ГБОУ школа № 514",
          "address": "ГБОУ школа № 514, здание № 1, Коломенская набережная, Коломенка, район Нагатинский Затон, Москва, Центральный федеральный округ, 115142, Россия",
          "lat": 55.6775827,
          "lon": 37.70015
        },
        {
          "name": "Школа № 1694 «Ясенево». Здание 1",
          "address": "Школа № 1694 «Ясенево». Здание 1, Литовский бульвар, район Ясенево, Москва, Центральный федеральный округ, 117593, Россия",
          "lat": 55.6129461,
          "lon": 37.5450202
        },
        {
          "name": "Школа № 814. Учебный корпус № 1",
          "address": "Школа № 814. Учебный корпус № 1, Нежинская улица, Жилой комплекс «Нежинский Ковчег», район Очаково-Матвеевское, Москва, Центральный федеральный округ, 119517, Россия",
          "lat": 55.7068647,
          "lon": 37.474303
        },
        {
          "name": "Школа № 534 Корпус 1",
          "address": "Школа № 534 Корпус 1, Ореховый проезд, район Зябликово, Москва, Центральный федеральный округ, 115573, Россия",
          "lat": 55.6281967,
          "lon": 37.7380847
        },
        {
          "name": "Школа №1256 имени Героя Советского Союза И. С. Полбина (корпус 1)",
          "address": "Школа №1256 имени Героя Советского Союза И. С. Полбина (корпус 1), Батайская улица, район Печатники, Москва, Центральный федеральный округ, 109389, Россия",
          "lat": 55.6805961,
          "lon": 37.7268152
        },
        {
          "name": "Школа № 2099. Здание 1",
          "address": "Школа № 2099. Здание 1, 3-я Радиаторская улица, Войковский район, Москва, Центральный федеральный округ, 125171, Россия",
          "lat": 55.8175289,
          "lon": 37.4931712
        },
        {
          "name": "ГБОУ Школа №799",
          "address": "ГБОУ Школа №799, корпус 1, Саянская улица, район Ивановское, Москва, Центральный федеральный округ, 111578, Россия",
          "lat": 55.7691663,
          "lon": 37.8253888
        },
        {
          "name": "Школа № 460 имени дважды Героев Советского Союза А.А. Головачёва и С.Ф. Шутова (ДГ-1)",
          "address": "Школа № 460 имени дважды Героев Советского Союза А.А. Головачёва и С.Ф. Шутова (ДГ-1), Краснодарская улица, район Люблино, Москва, Центральный федеральный округ, 109559, Россия",
          "lat": 55.6736098,
          "lon": 37.7694738
        }
      ]
    },
    {
      "name": "Школа Глория",
      "number": null,
      "district": "Бибирево",
      "okrug": "СВАО",
      "groupId": 3,
      "buildings": [
        {
          "name": "\"Школа Глория\" (Школа № 3)",
          "address": "\"Школа Глория\" (Школа № 3), Шенкурский проезд, район Бибирево, Москва, Центральный федеральный округ, 127349, Россия",
          "lat": 55.9019265,
          "lon": 37.5905621
        }
      ]
    },
    {
      "name": "Школа №1430 им. Г.В. Кисунько",
      "number": "1430",
      "district": "Лианозово",
      "okrug": "СВАО",
      "groupId": 3,
      "buildings": [
        {
          "name": "Школа № 1430 имени Героя Социалистического Труда Г. В. Кисунько. Корпус 1",
          "address": "Школа № 1430 имени Героя Социалистического Труда Г. В. Кисунько. Корпус 1, Хотьковская улица, район Лианозово, Москва, Центральный федеральный округ, 127572, Россия",
          "lat": 55.9006166,
          "lon": 37.5780253
        },
        {
          "name": "ГБОУ Школа №1430",
          "address": "ГБОУ Школа №1430, Угличская улица, 2-й микрорайон Лианозово, район Лианозово, Москва, Центральный федеральный округ, 127572, Россия",
          "lat": 55.9035797,
          "lon": 37.5668796
        }
      ]
    },
    {
      "name": "Школа №1573",
      "number": "1573",
      "district": "Лианозово",
      "okrug": "СВАО",
      "groupId": 3,
      "buildings": [
        {
          "name": "Гимназия №1573",
          "address": "Гимназия №1573, Псковская улица, район Лианозово, Москва, Центральный федеральный округ, 127253, Россия",
          "lat": 55.9065988,
          "lon": 37.5526967
        }
      ]
    },
    {
      "name": "Школа №1955",
      "number": "1955",
      "district": "Лосиноостровский",
      "okrug": "СВАО",
      "groupId": 3,
      "buildings": [
        {
          "name": "Школа №1955",
          "address": "Школа №1955, Широкая улица, Лосиноостровский район, Москва, Центральный федеральный округ, 129345, Россия",
          "lat": 55.8849486,
          "lon": 37.683116
        }
      ]
    },
    {
      "name": "Школа №1411",
      "number": "1411",
      "district": "Отрадное",
      "okrug": "СВАО",
      "groupId": 3,
      "buildings": [
        {
          "name": "Школа № 1411. Структурное подразделение № 978",
          "address": "Школа № 1411. Структурное подразделение № 978, улица Бестужевых, район Отрадное, Москва, Центральный федеральный округ, 127566, Россия",
          "lat": 55.8686843,
          "lon": 37.6031816
        }
      ]
    },
    {
      "name": "Школа «Свиблово»",
      "number": null,
      "district": "Свиблово",
      "okrug": "СВАО",
      "groupId": 3,
      "buildings": [
        {
          "name": "Школа Свиблово",
          "address": "Школа Свиблово, корпус 2, Сибиряковская улица, район Свиблово, Москва, Центральный федеральный округ, 129327, Россия",
          "lat": 55.853796,
          "lon": 37.6593189
        },
        {
          "name": "Школа Свиблово",
          "address": "Школа Свиблово, корпус 4, Тенистый проезд, район Свиблово, Москва, Центральный федеральный округ, 129329, Россия",
          "lat": 55.8605029,
          "lon": 37.6393354
        },
        {
          "name": "Школа Свиблово",
          "address": "Школа Свиблово, корпус 5, 11 к3, улица Амундсена, район Свиблово, Москва, Центральный федеральный округ, 129343, Россия",
          "lat": 55.8521017,
          "lon": 37.6542144
        },
        {
          "name": "Школа Свиблово",
          "address": "Школа Свиблово, корпус 1, улица Седова, район Свиблово, Москва, Центральный федеральный округ, 129323, Россия",
          "lat": 55.8527427,
          "lon": 37.6422055
        },
        {
          "name": "Школа Свиблово",
          "address": "Школа Свиблово, корпус 17, проезд Русанова, район Свиблово, Москва, Центральный федеральный округ, 129323, Россия",
          "lat": 55.8556665,
          "lon": 37.6407516
        },
        {
          "name": "Школа Свиблово",
          "address": "Школа Свиблово, корпус 6, улица Седова, район Свиблово, Москва, Центральный федеральный округ, 129323, Россия",
          "lat": 55.8534067,
          "lon": 37.6389176
        }
      ]
    },
    {
      "name": "Школа №1506",
      "number": "1506",
      "district": "Северное Медведково",
      "okrug": "СВАО",
      "groupId": 3,
      "buildings": [
        {
          "name": "Гимназия №1506",
          "address": "Гимназия №1506, Широкая улица, район Северное Медведково, Москва, Центральный федеральный округ, 127221, Россия",
          "lat": 55.8896921,
          "lon": 37.6505777
        }
      ]
    },
    {
      "name": "Школа №2044 им. А.М. Серебрякова",
      "number": "2044",
      "district": "САО",
      "okrug": "СВАО",
      "groupId": 3,
      "buildings": [
        {
          "name": "Школа № 2044",
          "address": "Школа № 2044, улица Мерянка, Новодачный посёлок, район Северный, Москва, Центральный федеральный округ, 127495, Россия",
          "lat": 55.9321539,
          "lon": 37.5408777
        },
        {
          "name": "Школа № 2044",
          "address": "Школа № 2044, улица Академика Христиановича, район Северный, Москва, Центральный федеральный округ, 141705, Россия",
          "lat": 55.941106,
          "lon": 37.5223309
        },
        {
          "name": "Школа №2044",
          "address": "Школа №2044, 165Е к8, Дмитровское шоссе (дублёр), район Северный, Москва, Центральный федеральный округ, 127495, Россия",
          "lat": 55.9267027,
          "lon": 37.5423375
        }
      ]
    },
    {
      "name": "Школа №709 им. В.И. Долгих",
      "number": "709",
      "district": "САО",
      "okrug": "СВАО",
      "groupId": 3,
      "buildings": [
        {
          "name": "Школа №709",
          "address": "Школа №709, 13, 7-я Северная линия, 4-й микрорайон Северного, район Северный, Москва, Центральный федеральный округ, 127204, Россия",
          "lat": 55.9380703,
          "lon": 37.5496507
        }
      ]
    },
    {
      "name": "Школа №2005",
      "number": "2005",
      "district": "Куркино",
      "okrug": "СЗАО",
      "groupId": 3,
      "buildings": [
        {
          "name": "Школа № 2005. Здание \"Совёнок\"",
          "address": "Школа № 2005. Здание \"Совёнок\", улица Соловьиная Роща, Машкино, район Куркино, Москва, Центральный федеральный округ, 125466, Россия",
          "lat": 55.8975806,
          "lon": 37.3977635
        }
      ]
    },
    {
      "name": "Школа №1564 им. А.П. Белобородова",
      "number": "1564",
      "district": "Митино",
      "okrug": "СЗАО",
      "groupId": 3,
      "buildings": [
        {
          "name": "Школа № 1564 имени Героя Советского Союза А.П. Белобородова. Здание № 2",
          "address": "Школа № 1564 имени Героя Советского Союза А.П. Белобородова. Здание № 2, улица Генерала Белобородова, район Митино, Москва, Центральный федеральный округ, 125222, Россия",
          "lat": 55.8320315,
          "lon": 37.3539324
        },
        {
          "name": "Школа № 1564 имени Героя Советского Союза А.П. Белобородова. Здание № 3",
          "address": "Школа № 1564 имени Героя Советского Союза А.П. Белобородова. Здание № 3, Уваровский переулок, район Митино, Москва, Центральный федеральный округ, 125222, Россия",
          "lat": 55.8281302,
          "lon": 37.3490253
        },
        {
          "name": "Лицей № 1564 имени Героя Советского Союза А.П. Белобородова. Здание № 1",
          "address": "Лицей № 1564 имени Героя Советского Союза А.П. Белобородова. Здание № 1, улица Рословка, район Митино, Москва, Центральный федеральный округ, 125222, Россия",
          "lat": 55.8301011,
          "lon": 37.3603119
        }
      ]
    },
    {
      "name": "Школа №1944",
      "number": "1944",
      "district": "Митино",
      "okrug": "СЗАО",
      "groupId": 3,
      "buildings": [
        {
          "name": "Школа № 1944. Корпус 2",
          "address": "Школа № 1944. Корпус 2, улица Барышиха, район Митино, Москва, Центральный федеральный округ, 125368, Россия",
          "lat": 55.8465848,
          "lon": 37.3429661
        }
      ]
    },
    {
      "name": "Школа №827",
      "number": "827",
      "district": "Северное Тушино",
      "okrug": "СЗАО",
      "groupId": 3,
      "buildings": [
        {
          "name": "Школа № 827",
          "address": "Школа № 827, бульвар Яна Райниса, Братцево, район Северное Тушино, Москва, Центральный федеральный округ, 125373, Россия",
          "lat": 55.8528347,
          "lon": 37.4125819
        }
      ]
    },
    {
      "name": "Школа №58",
      "number": "58",
      "district": "Строгино",
      "okrug": "СЗАО",
      "groupId": 3,
      "buildings": [
        {
          "name": "Школа № 58",
          "address": "Школа № 58, улица Гарибальди, Ломоносовский район, Москва, Центральный федеральный округ, 119313, Россия",
          "lat": 55.6784191,
          "lon": 37.5393256
        }
      ]
    },
    {
      "name": "Хорошевская школа",
      "number": null,
      "district": "Хорошево-Мневники",
      "okrug": "СЗАО",
      "groupId": 3,
      "buildings": [
        {
          "name": "Хорошёвская прогимназия",
          "address": "Хорошёвская прогимназия, улица Маршала Тухачевского, район Хорошёво-Мнёвники, Москва, Центральный федеральный округ, 123154, Россия",
          "lat": 55.7837308,
          "lon": 37.46583
        }
      ]
    },
    {
      "name": "Школа №2097",
      "number": "2097",
      "district": "Южное Тушино",
      "okrug": "СЗАО",
      "groupId": 3,
      "buildings": [
        {
          "name": "Школа № 2097. Корпус № 3",
          "address": "Школа № 2097. Корпус № 3, 35, Сходненская улица (дублёр), район Южное Тушино, Москва, Центральный федеральный округ, 125363, Россия",
          "lat": 55.8485108,
          "lon": 37.4376098
        },
        {
          "name": "Школа № 2097. Корпус № 2",
          "address": "Школа № 2097. Корпус № 2, бульвар Яна Райниса, район Южное Тушино, Москва, Центральный федеральный округ, 125459, Россия",
          "lat": 55.847626,
          "lon": 37.4216291
        }
      ]
    },
    {
      "name": "Школа №1234",
      "number": "1234",
      "district": "Арбат",
      "okrug": "ЦАО",
      "groupId": 3,
      "buildings": [
        {
          "name": "Школа № 1234",
          "address": "Школа № 1234, Прямой переулок, район Арбат, Москва, Центральный федеральный округ, 121099, Россия",
          "lat": 55.7513288,
          "lon": 37.5809542
        },
        {
          "name": "Школа с углубленным изучением отдельных предметов № 1234",
          "address": "Школа с углубленным изучением отдельных предметов № 1234, Малый Палашёвский переулок, 49, Тверской район, Москва, Центральный федеральный округ, 123104, Россия",
          "lat": 55.7651807,
          "lon": 37.6013829
        },
        {
          "name": "Школа № 1234. Начальная школа",
          "address": "Школа № 1234. Начальная школа, Новинский бульвар, район Арбат, Москва, Центральный федеральный округ, 121099, Россия",
          "lat": 55.7562894,
          "lon": 37.5852266
        }
      ]
    },
    {
      "name": "Школа №627 им. Д.Д. Лелюшенко",
      "number": "627",
      "district": "Замоскворечье",
      "okrug": "ЦАО",
      "groupId": 3,
      "buildings": [
        {
          "name": "Школа № 627 имени генерала Д. Д. Лелюшенко. Учебный корпус № 6",
          "address": "Школа № 627 имени генерала Д. Д. Лелюшенко. Учебный корпус № 6, 1-й Казачий переулок, район Якиманка, Москва, Центральный федеральный округ, 115184, Россия",
          "lat": 55.7354879,
          "lon": 37.6213833
        },
        {
          "name": "Школа № 627 имени генерала Д. Д. Лелюшенко. Учебный корпус № 4",
          "address": "Школа № 627 имени генерала Д. Д. Лелюшенко. Учебный корпус № 4, Стремянный переулок, район Замоскворечье, Москва, Центральный федеральный округ, 115054, Россия",
          "lat": 55.7260642,
          "lon": 37.627585
        },
        {
          "name": "Школа № 627",
          "address": "Школа № 627, улица Бахрушина, район Замоскворечье, Москва, Центральный федеральный округ, 115035, Россия",
          "lat": 55.7331085,
          "lon": 37.6360501
        }
      ]
    },
    {
      "name": "Школа №2054",
      "number": "2054",
      "district": "Мещанский",
      "okrug": "ЦАО",
      "groupId": 3,
      "buildings": [
        {
          "name": "Школа № 2054. Школьное отделение №3",
          "address": "Школа № 2054. Школьное отделение №3, Петровский переулок, 50, Тверской район, Москва, Центральный федеральный округ, 107031, Россия",
          "lat": 55.7650226,
          "lon": 37.614219
        }
      ]
    },
    {
      "name": "Романовская школа",
      "number": null,
      "district": "Пресненский",
      "okrug": "ЦАО",
      "groupId": 3,
      "buildings": [
        {
          "name": "Романовская школа",
          "address": "Романовская школа, Большой Кондратьевский переулок, Пресненский район, Москва, Центральный федеральный округ, 123056, Россия",
          "lat": 55.772633,
          "lon": 37.5821714
        },
        {
          "name": "Романовская школа",
          "address": "Романовская школа, Мукомольный проезд, Шелепиха, Пресненский район, Москва, Центральный федеральный округ, 123290, Россия",
          "lat": 55.7511142,
          "lon": 37.5240103
        },
        {
          "name": "Романовская школа",
          "address": "Романовская школа, улица Климашкина, Пресненский район, Москва, Центральный федеральный округ, 123557, Россия",
          "lat": 55.7673419,
          "lon": 37.5695411
        },
        {
          "name": "Романовская школа",
          "address": "Романовская школа, Средний Кондратьевский переулок, Пресненский район, Москва, Центральный федеральный округ, 123056, Россия",
          "lat": 55.7727393,
          "lon": 37.5778541
        },
        {
          "name": "Романовская школа",
          "address": "Романовская школа, Большой Тишинский переулок, Пресненский район, Москва, Центральный федеральный округ, 123557, Россия",
          "lat": 55.7687099,
          "lon": 37.5696317
        },
        {
          "name": "Романовская школа",
          "address": "Романовская школа, Шелепихинская набережная, Шелепиха, Пресненский район, Москва, Центральный федеральный округ, 123290, Россия",
          "lat": 55.7581204,
          "lon": 37.5166197
        }
      ]
    },
    {
      "name": "Школа №1520 им. Капцовых",
      "number": "1520",
      "district": "Пресненский",
      "okrug": "ЦАО",
      "groupId": 3,
      "buildings": [
        {
          "name": "Гимназия № 1520 им. Капцовых",
          "address": "Гимназия № 1520 им. Капцовых, 12/8 с1, Малый Кисловский переулок, 46, Пресненский район, Москва, Центральный федеральный округ, 125009, Россия",
          "lat": 55.7564721,
          "lon": 37.6029747
        }
      ]
    },
    {
      "name": "Школа №1950",
      "number": "1950",
      "district": "Пресненский",
      "okrug": "ЦАО",
      "groupId": 3,
      "buildings": [
        {
          "name": "Школа № 1950",
          "address": "Школа № 1950, улица Гашека, Пресненский район, Москва, Центральный федеральный округ, 123001, Россия",
          "lat": 55.7683729,
          "lon": 37.5881531
        }
      ]
    },
    {
      "name": "Инженерная Школа №1581",
      "number": "1581",
      "district": "Таганский",
      "okrug": "ЦАО",
      "groupId": 3,
      "buildings": [
        {
          "name": "Инженерная школа № 1581. Корпус 2",
          "address": "Инженерная школа № 1581. Корпус 2, Басманный тупик, Басманный район, Москва, Центральный федеральный округ, 107053, Россия",
          "lat": 55.7685588,
          "lon": 37.6550084
        },
        {
          "name": "Лицей № 1581 имени Ивана Бунина",
          "address": "Лицей № 1581 имени Ивана Бунина, улица Фридриха Энгельса, Бауманка, Басманный район, Москва, Центральный федеральный округ, 105082, Россия",
          "lat": 55.7788798,
          "lon": 37.6955393
        }
      ]
    },
    {
      "name": "Школа №498",
      "number": "498",
      "district": "Таганский",
      "okrug": "ЦАО",
      "groupId": 3,
      "buildings": [
        {
          "name": "Школа №498",
          "address": "Школа №498, 11/2, Народная улица, Таганский район, Москва, Центральный федеральный округ, 115172, Россия",
          "lat": 55.7378288,
          "lon": 37.6520378
        },
        {
          "name": "Школа № 498. Школьный корпус Марксистская улица",
          "address": "Школа № 498. Школьный корпус Марксистская улица, дом 9, корпус 2, Новоселенский переулок, Таганский район, Москва, Центральный федеральный округ, 109147, Россия",
          "lat": 55.7365171,
          "lon": 37.66808
        },
        {
          "name": "Школа № 498. Школьный корпус Большой Факельный переулок",
          "address": "Школа № 498. Школьный корпус Большой Факельный переулок, дом 23, Большой Факельный переулок, Таганский район, Москва, Центральный федеральный округ, 109147, Россия",
          "lat": 55.741276,
          "lon": 37.6680786
        }
      ]
    },
    {
      "name": "Школа №1574",
      "number": "1574",
      "district": "Тверской",
      "okrug": "ЦАО",
      "groupId": 3,
      "buildings": [
        {
          "name": "Школа № 1574. Корпус Старопименовский",
          "address": "Школа № 1574. Корпус Старопименовский, Старопименовский переулок, 49, Тверской район, Москва, Центральный федеральный округ, 125009, Россия",
          "lat": 55.7692583,
          "lon": 37.6006485
        },
        {
          "name": "Лицей № 1574. ОП № 1",
          "address": "Лицей № 1574. ОП № 1, 3-я Тверская-Ямская улица, Тверской район, Москва, Центральный федеральный округ, 125047, Россия",
          "lat": 55.7745483,
          "lon": 37.590555
        }
      ]
    },
    {
      "name": "Школа №1253",
      "number": "1253",
      "district": "Хамовники",
      "okrug": "ЦАО",
      "groupId": 3,
      "buildings": [
        {
          "name": "Школа 1253",
          "address": "Школа 1253, улица Шеногина, район Хорошёво-Мнёвники, Москва, Центральный федеральный округ, 123007, Россия",
          "lat": 55.7655984,
          "lon": 37.5064961
        }
      ]
    },
    {
      "name": "Медицинский Сеченовский Предуниверсарий",
      "number": null,
      "district": "Хамовники",
      "okrug": "ЦАО",
      "groupId": 3,
      "buildings": []
    },
    {
      "name": "Школа №1799",
      "number": "1799",
      "district": "Якиманка",
      "okrug": "ЦАО",
      "groupId": 3,
      "buildings": [
        {
          "name": "Школа № 1799. Школьный корпус",
          "address": "Школа № 1799. Школьный корпус, Донская улица, район Якиманка, Москва, Центральный федеральный округ, 111991, Россия",
          "lat": 55.7233708,
          "lon": 37.6058269
        },
        {
          "name": "Многопрофильный лицей № 1799. СП «Школа № 19»",
          "address": "Многопрофильный лицей № 1799. СП «Школа № 19», 2-й Кадашёвский переулок, район Якиманка, Москва, Центральный федеральный округ, 115035, Россия",
          "lat": 55.7441725,
          "lon": 37.6217042
        },
        {
          "name": "Многопрофильный лицей № 1799. СП \"Лицей на Полянке\"",
          "address": "Многопрофильный лицей № 1799. СП \"Лицей на Полянке\", Бродников переулок, район Якиманка, Москва, Центральный федеральный округ, 119180, Россия",
          "lat": 55.7370037,
          "lon": 37.6180655
        }
      ]
    },
    {
      "name": "Школа №1420",
      "number": "1420",
      "district": "Выхино-Жулебино",
      "okrug": "ЮВАО",
      "groupId": 3,
      "buildings": [
        {
          "name": "ГБОУ Школа 1420",
          "address": "ГБОУ Школа 1420, Корпус № 12, Волгоградский проспект (дублёр), район Кузьминки, Москва, Центральный федеральный округ, 109439, Россия",
          "lat": 55.7001638,
          "lon": 37.7872111
        }
      ]
    },
    {
      "name": "Школа №1793 им. А.К. Новикова",
      "number": "1793",
      "district": "Выхино-Жулебино",
      "okrug": "ЮВАО",
      "groupId": 3,
      "buildings": [
        {
          "name": "Школа № 1793",
          "address": "Школа № 1793, Привольная улица, Жулебино, район Выхино-Жулебино, Москва, Центральный федеральный округ, 109153, Россия",
          "lat": 55.6895429,
          "lon": 37.8501394
        },
        {
          "name": "ГБОУ СОШ № 1793 СП2",
          "address": "ГБОУ СОШ № 1793 СП2, 45, Привольная улица, Жулебино, район Выхино-Жулебино, Москва, Центральный федеральный округ, 109156, Россия",
          "lat": 55.6869911,
          "lon": 37.846681
        }
      ]
    },
    {
      "name": "Школа №1208 им. М.С. Шумилова",
      "number": "1208",
      "district": "Кузьминки",
      "okrug": "ЮВАО",
      "groupId": 3,
      "buildings": [
        {
          "name": "Школа № 1208 имени Героя Советского Союза М.С. Шумилова. Корпус № 3",
          "address": "Школа № 1208 имени Героя Советского Союза М.С. Шумилова. Корпус № 3, улица Шумилова, район Кузьминки, Москва, Центральный федеральный округ, 109443, Россия",
          "lat": 55.7085125,
          "lon": 37.7762045
        },
        {
          "name": "Школа № 1208 имени Героя Советского Союза М.С. Шумилова. Корпус № 1",
          "address": "Школа № 1208 имени Героя Советского Союза М.С. Шумилова. Корпус № 1, улица Шумилова, район Кузьминки, Москва, Центральный федеральный округ, 109443, Россия",
          "lat": 55.7077593,
          "lon": 37.7712348
        },
        {
          "name": "Школа № 1208 имени Героя Советского Союза М.С. Шумилова. Корпус № 4",
          "address": "Школа № 1208 имени Героя Советского Союза М.С. Шумилова. Корпус № 4, Волгоградский проспект (дублёр), район Кузьминки, Москва, Центральный федеральный округ, 109443, Россия",
          "lat": 55.7071909,
          "lon": 37.7710406
        }
      ]
    },
    {
      "name": "Марьинская школа №1566",
      "number": "1566",
      "district": "Марьино",
      "okrug": "ЮВАО",
      "groupId": 3,
      "buildings": [
        {
          "name": "Школа 1566",
          "address": "Школа 1566, 14 к3, Мячковский бульвар, район Марьино, Москва, Центральный федеральный округ, 109652, Россия",
          "lat": 55.6511802,
          "lon": 37.7546622
        }
      ]
    },
    {
      "name": "Школа «Марьино» им. А.Е. Голованова",
      "number": null,
      "district": "Марьино",
      "okrug": "ЮВАО",
      "groupId": 3,
      "buildings": []
    },
    {
      "name": "Школа им. Артема Боровика",
      "number": null,
      "district": "Марьино",
      "okrug": "ЮВАО",
      "groupId": 3,
      "buildings": [
        {
          "name": "Гимназия №1562 им. Артема Боровика",
          "address": "Гимназия №1562 им. Артема Боровика, 4, Братиславская улица, район Марьино, Москва, Центральный федеральный округ, 109451, Россия",
          "lat": 55.6653915,
          "lon": 37.7508242
        }
      ]
    },
    {
      "name": "Школа №1357 «На Братиславской»",
      "number": "1357",
      "district": "Марьино",
      "okrug": "ЮВАО",
      "groupId": 3,
      "buildings": [
        {
          "name": "Школа № 1357 «На Братиславской». Здание №5",
          "address": "Школа № 1357 «На Братиславской». Здание №5, Мячковский бульвар, 6-й мкр. Марьинского Парка, район Марьино, Москва, Центральный федеральный округ, 109341, Россия",
          "lat": 55.6504477,
          "lon": 37.7624942
        },
        {
          "name": "Школа № 1357 «На Братиславской». Здание №15",
          "address": "Школа № 1357 «На Братиславской». Здание №15, улица Верхние Поля, район Люблино, Москва, Центральный федеральный округ, 109559, Россия",
          "lat": 55.6668751,
          "lon": 37.7776577
        },
        {
          "name": "Школа № 1357 «На Братиславской». Здание №11",
          "address": "Школа № 1357 «На Братиславской». Здание №11, улица Верхние Поля, район Марьино, Москва, Центральный федеральный округ, 109451, Россия",
          "lat": 55.6664371,
          "lon": 37.7578022
        }
      ]
    },
    {
      "name": "Школа №2087 «Открытие»",
      "number": "2087",
      "district": "Марьино",
      "okrug": "ЮВАО",
      "groupId": 3,
      "buildings": []
    },
    {
      "name": "Школа №491 «Марьино»",
      "number": "491",
      "district": "Марьино",
      "okrug": "ЮВАО",
      "groupId": 3,
      "buildings": [
        {
          "name": "Школа №491",
          "address": "Школа №491, Новочеркасский бульвар, район Марьино, Москва, Центральный федеральный округ, 109651, Россия",
          "lat": 55.6489048,
          "lon": 37.722073
        }
      ]
    },
    {
      "name": "Школа в Некрасовке",
      "number": null,
      "district": "Некрасовка",
      "okrug": "ЮВАО",
      "groupId": 3,
      "buildings": [
        {
          "name": "Школа в Некрасовке",
          "address": "Школа в Некрасовке, 7 к2, 2-я Вольская улица, район Некрасовка, Некрасовка, Москва, Центральный федеральный округ, 111674, Россия",
          "lat": 55.6880168,
          "lon": 37.9233739
        }
      ]
    },
    {
      "name": "Школа №2051",
      "number": "2051",
      "district": "Некрасовка",
      "okrug": "ЮВАО",
      "groupId": 3,
      "buildings": [
        {
          "name": "Школа № 2051 начальная школа",
          "address": "Школа № 2051 начальная школа, проспект Защитников Москвы, Люберецкие поля, район Некрасовка, Москва, Центральный федеральный округ, 100332, Россия",
          "lat": 55.7015935,
          "lon": 37.9177672
        }
      ]
    },
    {
      "name": "Школа №1367",
      "number": "1367",
      "district": "Рязанский",
      "okrug": "ЮВАО",
      "groupId": 3,
      "buildings": [
        {
          "name": "Школа №1367",
          "address": "Школа №1367, улица Васильцовский Стан, Рязанский район, Москва, Центральный федеральный округ, 109125, Россия",
          "lat": 55.714703,
          "lon": 37.7525365
        }
      ]
    },
    {
      "name": "Школа №777 им. Е.В. Михайлова",
      "number": "777",
      "district": "Рязанский",
      "okrug": "ЮВАО",
      "groupId": 3,
      "buildings": [
        {
          "name": "Школа № 777 имени Героя Советского Союза Е. В. Михайлова. Школьный корпус на Маёвок",
          "address": "Школа № 777 имени Героя Советского Союза Е. В. Михайлова. Школьный корпус на Маёвок, Шатурская улица, Рязанский район, Москва, Центральный федеральный округ, 109428, Россия",
          "lat": 55.7282143,
          "lon": 37.7695017
        },